City,Lat,Lng,Max_Temp,Humidity,Cloudiness,Wind_Speed,Country,Date
san quintin,30.4833,-115.95,61.97,67,0,9.17,MX,1612659478
saint-philippe,-21.3585,55.7679,78.8,73,75,4.61,RE,1612660195
vila franca do campo,37.7167,-25.4333,59,94,75,23.02,PT,1612659951
albany,42.6001,-73.9662,27,45,0,4.5,US,1612659666
butaritari,3.0707,172.7902,81.14,80,44,20.54,KI,1612660196
nikolskoye,59.7035,30.7861,10.4,79,75,17.9,RU,1612660196
ushuaia,-54.8,-68.3,50,76,75,12.66,AR,1612660177
nouadhibou,20.931,-17.0347,60.8,72,0,17.27,MR,1612660197
sioux lookout,50.1001,-91.917,-13,64,90,11.5,CA,1612660197
lyubech,51.7026,30.6569,5.79,93,46,6.55,UA,1612660197
dikson,73.5069,80.5464,-28.1,86,90,9.6,RU,1612660198
amapa,1,-52,73.53,97,100,2.39,BR,1612660198
rikitea,-23.1203,-134.9692,78.78,68,45,9.57,PF,1612660198
jamestown,42.097,-79.2353,17.6,53,1,6.91,US,1612659669
mahebourg,-20.4081,57.7,77,83,40,4.61,MU,1612660199
hilo,19.7297,-155.09,78.8,53,75,5.75,US,1612660199
cassilandia,-19.1133,-51.7342,69.94,77,0,4.38,BR,1612660199
victoria,22.2855,114.1577,71.01,62,0,9.28,HK,1612660033
bichena,10.45,38.2,50.9,45,100,3.36,ET,1612660200
lysva,58.1086,57.8053,6.08,94,100,10.16,RU,1612660200
tasiilaq,65.6145,-37.6368,33.8,55,92,28.77,GL,1612660200
cape town,-33.9258,18.4232,70,88,20,9.22,ZA,1612660193
port alfred,-33.5906,26.891,68,87,39,5.99,ZA,1612660201
malanje,-9.5402,16.341,64.9,99,100,5.26,AO,1612660202
hobart,-42.8794,147.3294,69.01,51,75,17.27,AU,1612659457
punta arenas,-53.15,-70.9167,51.8,66,0,17.27,CL,1612660002
manresa,41.725,1.8266,52,74,0,7,ES,1612660204
egvekinot,66.3167,-179.1667,-3.78,79,0,8.72,RU,1612660204
east london,-33.0153,27.9116,74.55,87,74,14.99,ZA,1612660205
puerto ayora,-0.7393,-90.3518,77,93,52,1.01,EC,1612659998
namibe,-15.1961,12.1522,70.54,79,34,5.73,AO,1612660205
bathsheba,13.2167,-59.5167,77,73,20,11.5,BB,1612660206
mataura,-46.1927,168.8643,80.42,46,0,1.88,NZ,1612660206
lebu,-37.6167,-73.65,58.21,94,84,2.51,CL,1612660206
carnarvon,-24.8667,113.6333,84.2,100,40,13.8,AU,1612660206
pevek,69.7008,170.3133,-6.09,87,0,5.61,RU,1612660207
cockburn town,21.4612,-71.1419,77,78,40,17.27,TC,1612660207
hinton,53.4001,-117.5857,-0.4,60,100,6.91,CA,1612660207
airai,-8.9266,125.4092,70.88,79,72,4.38,TL,1612660207
ulety,51.3572,112.4849,-4.61,87,100,3.22,RU,1612660208
saint george,37.1041,-113.5841,57.2,17,1,11.5,US,1612660208
the valley,18.217,-63.0578,78.8,83,40,11.5,AI,1612659939
ribeira grande,38.5167,-28.7,61.05,88,100,23.04,PT,1612660208
pamanukan,-6.2842,107.8106,78.89,87,100,8.66,ID,1612660087
atuona,-9.8,-139.0333,80.13,78,51,19.84,PF,1612660204
aran,40.6253,46.9756,35.6,100,90,9.22,AZ,1612660209
barrow,71.2906,-156.7887,-5.8,77,90,14.97,US,1612660209
cidreira,-30.1811,-50.2056,68.36,76,15,4.07,BR,1612660209
rosarito,32.3333,-117.0333,63,63,1,3.85,MX,1612660209
slave lake,55.2834,-114.769,-23.8,76,1,5.75,CA,1612660210
saskylakh,71.9167,114.0833,-41.69,78,16,7.52,RU,1612660210
taksimo,56.3444,114.8794,-13.52,77,3,0.94,RU,1612660210
severo-kurilsk,50.6789,156.125,22.01,93,100,24.43,RU,1612660211
vaini,-21.2,-175.2,84.2,84,75,9.22,TO,1612660205
vila velha,-20.3297,-40.2925,82,83,75,9.22,BR,1612660211
kirakira,-10.4544,161.9205,79.74,86,100,8.95,SB,1612660211
norman wells,65.282,-126.8329,-25.6,68,75,2.3,CA,1612660199
kushmurun,52.4503,64.6311,7.95,90,91,21.25,KZ,1612660212
lompoc,34.6391,-120.4579,63,63,1,9.22,US,1612660212
flin flon,54.7682,-101.865,-25.6,62,1,6.91,CA,1612660213
afyonkarahisar,38.75,30.6667,42.89,62,0,3.69,TR,1612660213
emerald,-23.5333,148.1667,96.01,49,36,8.05,AU,1612660213
kodiak,57.79,-152.4072,37.4,60,1,9.22,US,1612659461
marawi,7.9986,124.2928,81,78,49,2.64,PH,1612660214
avarua,-21.2078,-159.775,86,70,35,11.5,CK,1612660214
haimen,23.1935,116.6142,60.8,82,75,6.71,CN,1612660214
busselton,-33.65,115.3333,61,97,100,1.99,AU,1612660214
dingle,10.9995,122.6711,80.51,82,71,13.96,PH,1612660214
kieta,-6.2167,155.6333,87.53,65,37,9.4,PG,1612659955
praia da vitoria,38.7333,-27.0667,60.8,82,20,13.89,PT,1612660215
upernavik,72.7868,-56.1549,18.59,75,0,3.47,GL,1612660215
sulangan,11.1373,123.7228,80.69,81,55,13.29,PH,1612660216
berlevag,70.8578,29.0864,26.42,94,100,26.13,NO,1612660202
aliwal north,-30.6937,26.7114,64.54,78,3,1.32,ZA,1612660216
vardo,70.3705,31.1107,26.67,96,100,28.86,NO,1612660216
castro,-24.7911,-50.0119,60.3,96,8,9.78,BR,1612660217
kapaa,22.0752,-159.319,73.4,49,40,6.91,US,1612660217
buraydah,26.326,43.975,50,100,75,5.75,SA,1612660217
ukhta,63.5671,53.6835,-23.64,84,100,12.53,RU,1612660217
nishihara,26.1842,127.7558,69.8,56,20,6.91,JP,1612660217
hermanus,-34.4187,19.2345,66.99,93,100,3.51,ZA,1612660218
flinders,-34.5833,150.8552,82.99,61,13,4,AU,1612660218
kungurtug,50.5994,97.5228,-0.27,85,0,2.04,RU,1612660218
tiksi,71.6872,128.8694,-25.13,84,100,5.32,RU,1612660219
yining,29.0361,114.5636,56.86,77,0,0.94,CN,1612660219
bullhead city,35.1478,-114.5683,71.6,60,1,8.05,US,1612660002
thompson,55.7435,-97.8558,-27.4,68,75,13.8,CA,1612660219
paamiut,61.994,-49.6678,23.58,80,0,4.07,GL,1612660220
jalu,29.0331,21.5482,58.44,41,0,8.52,LY,1612660220
mount gambier,-37.8333,140.7667,60.8,77,90,14.97,AU,1612660220
bethel,41.3712,-73.414,32,59,1,5.14,US,1612660220
abu kamal,34.4506,40.9171,51.93,53,0,9.93,SY,1612660221
atar,20.5169,-13.0499,58.55,38,0,11.72,MR,1612660221
goulburn,-34.75,149.7167,75,45,0,11.14,AU,1612660221
bloomington,44.8408,-93.2983,-5.8,59,20,14.97,US,1612660221
tema,5.667,-0.0166,82.4,89,20,10.36,GH,1612660221
chuy,-33.6971,-53.4616,66.87,86,0,9.84,UY,1612660222
sitka,57.0531,-135.33,33.8,55,40,6.91,US,1612660222
hithadhoo,-0.6,73.0833,81.36,75,41,13.96,MV,1612660214
woodward,36.4337,-99.3904,26.6,80,90,10.36,US,1612660222
mysliborz,52.9238,14.8679,21,54,100,8.99,PL,1612660222
georgetown,5.4112,100.3354,78.8,83,20,2.3,MY,1612660223
djenne,13.9061,-4.5533,79.38,16,100,15.26,ML,1612660223
kashi,39.4547,75.9797,32,59,20,11.18,CN,1612660223
kavieng,-2.5744,150.7967,85.21,64,35,1.03,PG,1612660224
kokologo,12.1897,-1.8856,77,31,100,2.3,BF,1612660224
leh,34.1667,77.5833,4.28,49,0,1.83,IN,1612660225
shubarshi,48.5872,57.1869,11.46,94,79,10.25,KZ,1612660225
mataram,-8.5833,116.1167,84.2,74,20,2.3,ID,1612660225
koslan,63.4564,48.8989,-22.49,83,78,10.69,RU,1612660225
alta floresta,-9.8756,-56.0861,71.6,99,100,3.38,BR,1612660006
fairbanks,64.8378,-147.7164,-4,77,90,0.87,US,1612660203
camocim,-2.9022,-40.8411,79.39,79,0,14.32,BR,1612660226
carutapera,-1.195,-46.02,78.87,84,31,5.93,BR,1612660226
lavrentiya,65.5833,-171,-9.15,79,0,0.63,RU,1612660226
anloga,5.7947,0.8973,84.2,84,20,12.66,GH,1612660227
miyako,39.6367,141.9525,41.77,79,28,2.73,JP,1612660227
talnakh,69.4865,88.3972,-30.06,73,0,1.52,RU,1612660035
el alto,-4.2714,-81.2147,73.17,79,41,12.46,PE,1612660227
college,64.8569,-147.8028,-4,71,90,0.89,US,1612660228
cherskiy,68.75,161.3,-3.33,81,0,4.7,RU,1612660228
hami,42.8,93.45,30.76,76,100,6.31,CN,1612660228
mapastepec,15.4333,-92.9,74.25,61,0,2.68,MX,1612660228
chokurdakh,70.6333,147.9167,-20.04,86,100,3.49,RU,1612660208
doha,25.2867,51.5333,70,78,0,10.36,QA,1612660105
tomatlan,19.9333,-105.25,71.42,80,0,4.27,MX,1612660229
lasa,46.6166,10.7002,39,100,90,11.5,IT,1612660229
zatoka,46.0725,30.4654,26.6,86,90,4.47,UA,1612660229
las palmas,28.4204,-14.0131,60.8,67,20,10.36,ES,1612660230
nikolayevka,53.1257,47.2041,-3.15,89,94,11.23,RU,1612660230
hasaki,35.7333,140.8333,54,53,20,2.3,JP,1612660210
port hawkesbury,45.6169,-61.3485,33.8,69,90,16.11,CA,1612659989
san cristobal,7.7669,-72.225,82.4,65,100,2.3,VE,1612659973
fortuna,40.5982,-124.1573,51.01,87,1,12.66,US,1612660234
vidim,56.4088,103.1106,10.89,95,100,8.32,RU,1612660234
grindavik,63.8424,-22.4338,33.8,60,0,20.71,IS,1612660063
zumarraga,11.6388,124.8417,81.95,76,99,8.68,PH,1612660234
port elizabeth,-33.918,25.5701,69.8,78,0,19.57,ZA,1612660095
sorland,67.667,12.6934,35.22,79,8,19.93,NO,1612660235
plettenberg bay,-34.0527,23.3716,68.31,72,80,6.2,ZA,1612660235
shu,43.5983,73.7614,37.36,93,100,9.06,KZ,1612660236
esperance,-33.8667,121.9,60.8,94,90,12.66,AU,1612660236
qaanaaq,77.484,-69.3632,10.04,86,100,8.48,GL,1612659442
evensk,61.95,159.2333,18.52,85,100,26.15,RU,1612659955
alofi,-19.0595,-169.9187,86,74,100,11.5,NU,1612660237
henties bay,-22.116,14.2845,63,90,0,3,NA,1612660237
thinadhoo,0.5333,72.9333,81.28,74,0,12.26,MV,1612660107
olafsvik,64.8945,-23.7142,34.05,82,45,15.46,IS,1612660237
maxixe,-23.8597,35.3472,75.36,91,100,6.98,MZ,1612660238
columbus,39.9612,-82.9988,23,58,75,3.44,US,1612660148
mouila,-1.8685,11.0559,73.87,93,94,1.52,GA,1612660238
touros,-5.1989,-35.4608,77,88,20,4.61,BR,1612660238
sur,22.5667,59.5289,62.19,65,0,6.24,OM,1612660239
mar del plata,-38.0023,-57.5575,64,77,20,11.5,AR,1612660239
taoudenni,22.6783,-3.9836,60.71,33,97,10.87,ML,1612660239
newport,51.5877,-2.9984,41,91,100,20,GB,1612660239
shakawe,-18.3667,21.85,68.63,93,78,3.89,BW,1612660240
conakry,9.538,-13.6773,80.6,83,40,6.91,GN,1612660240
juba,4.8517,31.5825,69.67,23,9,3.13,SS,1612660240
shitanjing,39.2342,106.3439,26.38,79,0,2.08,CN,1612660240
hobyo,5.3505,48.5268,76.73,79,64,15.77,SO,1612660240
alyangula,-13.8483,136.4192,82.4,78,90,17.27,AU,1612659943
jacqueville,5.2052,-4.4146,82.4,89,20,9.22,CI,1612660241
isangel,-19.55,169.2667,86,79,20,5.75,VU,1612660241
port blair,11.6667,92.75,78.93,74,0,8.12,IN,1612660241
zhanaozen,43.3,52.8,33.22,86,11,8.16,KZ,1612659954
sao filipe,14.8961,-24.4956,69.4,75,18,15.79,CV,1612660237
skelleftea,64.7507,20.9528,15.8,86,20,8.05,SE,1612660242
cabo san lucas,22.8909,-109.9124,71.01,60,20,8.05,MX,1612659973
truro,50.2653,-5.0544,39,93,98,8.05,GB,1612660242
soyo,-6.1349,12.3689,79.66,85,100,8.28,AO,1612660242
tigil,57.8,158.6667,19.71,92,100,27.63,RU,1612660243
clyde river,70.4692,-68.5914,-9.4,77,75,4.27,CA,1612660243
mogadishu,2.0371,45.3438,75.56,83,0,17.09,SO,1612660117
daltenganj,24.0333,84.0667,48.97,71,0,2.62,IN,1612660243
wielun,51.221,18.5696,21,78,100,17.74,PL,1612660244
terenos,-20.4422,-54.8603,69.8,73,0,3.44,BR,1612660244
la ronge,55.1001,-105.2842,-23.8,62,74,5.75,CA,1612660244
cabrero,-37.0333,-72.4,64.4,88,90,4.61,CL,1612660245
kavaratti,10.5669,72.642,81.21,61,43,10.11,IN,1612660245
asyut,27.181,31.1837,53.6,82,0,5.75,EG,1612660245
provideniya,64.3833,-173.3,2.34,88,4,6.26,RU,1612660245
hlotse,-28.8718,28.045,60.4,82,98,1.63,LS,1612660246
maltahohe,-24.8333,16.9833,71.8,21,0,10.69,NA,1612660246
senno,59.5336,33.9167,0.41,94,100,5.44,RU,1612660246
klaksvik,62.2266,-6.589,35.6,60,20,17.27,FO,1612660246
izumo,35.3667,132.7667,51.8,71,75,13.8,JP,1612660246
palana,59.1167,159.9667,15.42,92,100,33.42,RU,1612660247
sovetskiy,61.3614,63.5842,-9.67,91,100,13.73,RU,1612660247
sao geraldo do araguaia,-6.4006,-48.555,75.4,83,71,1.66,BR,1612660247
zaozerne,45.1582,33.2787,37,82,100,15.17,UA,1612660247
saint anthony,45.0205,-93.218,-5.8,59,1,13.8,US,1612660248
vanino,49.0869,140.2543,0.37,82,83,4.43,RU,1612660248
bambous virieux,-20.3428,57.7575,77,83,40,4.61,MU,1612660215
puerto narino,-3.7703,-70.3831,78.8,94,75,3.44,CO,1612660248
kapit,2.0167,112.9333,76.93,92,100,0.51,MY,1612660249
inhambane,-23.865,35.3833,76.69,88,100,6.82,MZ,1612660249
harper,4.375,-7.7169,79.41,87,0,9.8,LR,1612660249
narsaq,60.9167,-46.05,21.67,79,99,2.53,GL,1612660215
djibo,14.1022,-1.6306,78.1,18,100,9.51,BF,1612660250
presidencia roque saenz pena,-26.7852,-60.4388,75.99,60,0,3,AR,1612660250
lima,-12.0432,-77.0282,75,78,75,10.36,PE,1612660250
vostok,46.4856,135.8833,-5.69,89,100,3.09,RU,1612660251
manzil salim,35.8567,8.4765,59,51,75,29.93,TN,1612660251
mattru,7.6244,-11.8332,75.47,81,64,1.28,SL,1612660251
geraldton,-28.7667,114.6,71.6,78,75,20.71,AU,1612660202
grand-santi,4.25,-54.3833,72.93,97,100,2.77,GF,1612660252
general roca,-39.0333,-67.5833,78.8,61,0,9.64,AR,1612660252
viedma,-40.8135,-62.9967,63,69,100,1.01,AR,1612659962
ponta do sol,32.6667,-17.1,54,68,12,5.79,PT,1612660252
algeciras,36.1333,-5.4505,53.6,82,75,12.66,ES,1612660253
aklavik,68.2191,-135.0107,-7.6,71,90,11.5,CA,1612660253
maribo,54.7766,11.5002,28.99,76,100,15.01,DK,1612660253
labuhan,-6.8844,112.2051,81.59,80,0,9.8,ID,1612659994
bluff,-46.6,168.3333,61.23,70,0,7.07,NZ,1612659631
dunedin,-45.8742,170.5036,60.01,77,0,25.99,NZ,1612660240
khilok,51.3674,110.4676,-1.62,89,100,2.91,RU,1612660254
sao joao da barra,-21.6403,-41.0511,71.4,95,100,14.85,BR,1612660254
nizwa,22.9333,57.5333,49.55,64,0,1.34,OM,1612660254
gorom-gorom,14.4439,-0.2361,76.93,18,100,10,BF,1612660254
wajima,37.4,136.9,41,93,75,11.5,JP,1612660235
huallanca,-9.8993,-76.9417,47.37,76,100,3.89,PE,1612660255
eureka,40.8021,-124.1637,52,79,0,8.99,US,1612660014
pemangkat,1.1667,108.9667,79.79,84,60,2.21,ID,1612660255
bilibino,68.0546,166.4372,-4.18,79,0,2.95,RU,1612660255
umm lajj,25.0213,37.2685,68.45,48,0,17.72,SA,1612660256
pacific grove,36.6177,-121.9166,57.99,88,1,4.61,US,1612660256
algarrobo,10.1869,-74.5753,80.01,76,100,9.69,CO,1612660256
nara,34.6851,135.8049,55,76,20,2.3,JP,1612660256
prince rupert,54.3161,-130.3201,41,75,90,5.75,CA,1612660256
shamsabad,27.0167,78.1333,50.34,55,0,6.2,IN,1612660257
karasburg,-28.0167,18.75,68.59,39,0,8.14,NA,1612660257
aracati,-4.5617,-37.7697,79.63,77,0,10.18,BR,1612660257
umkomaas,-30.2067,30.7978,75.99,91,100,1.99,ZA,1612660257
ewa beach,21.3156,-158.0072,78.8,44,1,14.97,US,1612660258
kargasok,59.0556,80.8572,33.53,93,100,12.75,RU,1612660258
new norfolk,-42.7826,147.0587,66.99,49,74,3,AU,1612660258
padang,-0.9492,100.3543,75.2,83,20,2.3,ID,1612660258
quilali,13.567,-86.026,73.33,78,4,2.68,NI,1612660259
calvinia,-31.4707,19.776,60.6,78,0,3.51,ZA,1612660259
rocha,-34.4833,-54.3333,63.77,93,5,4.5,UY,1612660194
winnemucca,40.973,-117.7357,50,32,1,13.8,US,1612660259
grand-lahou,5.1367,-5.0242,79.36,89,15,10.13,CI,1612660260
yanam,16.7333,82.2167,68,88,71,9.22,IN,1612660260
antalaha,-14.9003,50.2788,74.86,86,100,3.78,MG,1612660260
kikwit,-5.041,18.8162,73.13,87,100,1.03,CD,1612660261
spirit river,55.7833,-118.8361,-23.8,83,0,2.3,CA,1612660261
namatanai,-3.6667,152.4333,86.18,62,99,5.37,PG,1612660261
bonito,-21.1211,-56.4819,67.35,75,0,3.85,BR,1612660262
arraial do cabo,-22.9661,-42.0278,72.79,82,100,6.71,BR,1612660262
muisne,0.6,-80.0333,78.57,86,97,4.03,EC,1612660262
marshall,34.3834,-86.3333,39.99,93,90,8.05,US,1612660263
oranjemund,-28.55,16.4333,65.1,91,91,16.98,NA,1612660263
eyl,7.9803,49.8164,74.5,82,39,11.79,SO,1612660263
znamenskoye,57.1281,73.8282,30.29,97,100,16.08,RU,1612660264
kargil,34.5667,76.1,-9.42,65,0,0.67,IN,1612660264
marsaxlokk,35.8419,14.5431,61,88,0,8.05,MT,1612660264
murgab,37.4966,61.9714,44.6,81,75,5.55,TM,1612660264
nantucket,41.2835,-70.0995,39.99,70,1,16.11,US,1612660265
grand gaube,-20.0064,57.6608,75.99,85,0,1.01,MU,1612660265
ancud,-41.8697,-73.8203,62.6,51,0,11.5,CL,1612660265
acarigua,9.5545,-69.1956,77.07,64,100,7.63,VE,1612660099
nanortalik,60.1432,-45.2371,24.17,87,100,9.69,GL,1612660266
kahului,20.8947,-156.47,78.8,50,40,11.5,US,1612660266
salym,60.0625,71.4789,33.67,93,100,10.13,RU,1612660266
khatanga,71.9667,102.5,-35.48,78,0,8.43,RU,1612660267
lata,40.1629,-8.3327,50,74,41,3,PT,1612660267
bredasdorp,-34.5322,20.0403,66.2,88,96,3.44,ZA,1612660267
banda aceh,5.5577,95.3222,79.7,76,36,8.19,ID,1612660260
nola,40.922,14.5329,60.01,58,0,2.3,IT,1612660268
nuuk,64.1835,-51.7216,33.8,44,20,18.41,GL,1612660268
kruisfontein,-34.0033,24.7314,64.99,88,0,1.99,ZA,1612660268
pisco,-13.7,-76.2167,71.6,83,75,9.22,PE,1612660168
horta,38.5333,-28.6333,60.08,90,100,22.73,PT,1612660268
souillac,-20.5167,57.5167,77,83,40,4.61,MU,1612660269
ust-kuyga,70.0167,135.6,-25.46,84,100,4.45,RU,1612660269
barcelos,41.5388,-8.6151,42.01,87,0,4.61,PT,1612660245
constitucion,-35.3333,-72.4167,57.42,87,34,4.88,CL,1612660269
hualmay,-11.0964,-77.6139,71.01,78,100,8.28,PE,1612660254
pilar do sul,-23.8131,-47.7164,63.19,92,27,8.1,BR,1612660270
nome,64.5011,-165.4064,17.6,73,90,4.61,US,1612660270
coihaique,-45.5752,-72.0662,71.6,35,0,18.41,CL,1612660270
zilair,52.2332,57.4392,-0.9,91,100,16.71,RU,1612660270
longyearbyen,78.2186,15.6401,15.8,86,75,12.66,SJ,1612660212
luanda,-8.8368,13.2343,78.8,83,40,9.22,AO,1612660157
mugur-aksy,50.35,90.5,4.33,84,0,6.58,RU,1612660271
burnie,-41.0667,145.9167,61,85,10,5.01,AU,1612660271
changying,52.8733,123.3213,-14.78,85,38,2.95,CN,1612660271
zeya,53.75,127.2667,-11.42,81,0,3.27,RU,1612660272
zorritos,-3.6805,-80.6782,78.33,70,43,9.57,PE,1612660272
labrea,-7.2586,-64.7981,75.72,96,99,2.44,BR,1612660272
zhengjiatun,43.5064,123.5064,3.24,91,38,11.07,CN,1612660272
lufilufi,-13.8745,-171.5986,77,100,90,11.5,WS,1612660272
yellowknife,62.456,-114.3525,-36.4,67,1,2.3,CA,1612660273
ambilobe,-13.2,49.05,72.9,94,99,2.73,MG,1612660273
lagoa,39.05,-27.9833,59.99,91,100,25.81,PT,1612660273
tiznit,29.5833,-9.5,48.52,86,57,13.44,MA,1612660273
prudentopolis,-25.2131,-50.9778,62.51,71,9,3.76,BR,1612660274
utena,55.5,25.6,-0.31,93,10,3.42,LT,1612660274
chongwe,-15.3292,28.682,64.67,97,98,3.11,ZM,1612660274
leningradskiy,69.3833,178.4167,-9.98,74,0,5.64,RU,1612660275
mitsamiouli,-11.3847,43.2844,81.86,75,97,6.44,KM,1612660275
port keats,-14.25,129.55,86.36,69,99,13.69,AU,1612660275
kayattar,8.95,77.8,69.73,80,21,6.67,IN,1612660275
restrepo,3.822,-76.5224,78.8,69,20,9.22,CO,1612660275
ciudad bolivar,8.1222,-63.5497,79.5,66,100,16.64,VE,1612660276
xining,36.6167,101.7667,21.09,66,96,1.99,CN,1612660276
tuktoyaktuk,69.4541,-133.0374,-16.6,76,90,21.85,CA,1612660206
muros,42.7762,-9.0603,37.99,95,96,1.99,ES,1612660277
garowe,8.4054,48.4845,70.47,75,100,12.86,SO,1612660277
ahipara,-35.1667,173.1667,70.07,64,96,2.13,NZ,1612660277
kysyl-syr,63.8986,122.7617,-33.34,82,90,8.05,RU,1612660272
vieste,41.8825,16.175,46.4,100,98,9.22,IT,1612660278
pontianak,-0.0333,109.3333,78.8,89,75,4.61,ID,1612660278
osoyoos,49.0331,-119.4524,39.2,87,100,1.14,CA,1612660278
faanui,-16.4833,-151.75,82.89,65,0,8.75,PF,1612660279
sinnamary,5.3833,-52.95,77.58,87,100,14.9,GF,1612660279
hay river,60.8156,-115.7999,-31,67,20,6.91,CA,1612660279
ambovombe,-25.1667,46.0833,76.32,93,7,6.73,MG,1612660279
uyuni,-20.4597,-66.825,58.89,53,100,10.67,BO,1612660279
guerrero negro,27.9769,-114.0611,65.89,47,0,12.28,MX,1612660280
inirida,3.8653,-67.9239,75.81,93,99,2.21,CO,1612660280
goundam,16.4145,-3.6708,74.19,22,100,14.03,ML,1612660280
galveston,29.3669,-94.9669,60.01,94,1,4.61,US,1612660280
coquimbo,-29.9533,-71.3436,60.8,82,0,6.91,CL,1612660280
lazaro cardenas,17.9583,-102.2,75.49,72,0,3.31,MX,1612660281
ucluelet,48.9329,-125.5528,44.6,81,20,14.97,CA,1612660281
torbay,47.6666,-52.7314,44.01,93,40,20.71,CA,1612660251
honningsvag,70.9821,25.9704,28.02,93,100,25.28,NO,1612660281
yeppoon,-23.1333,150.7333,93.2,49,91,8.05,AU,1612660282
palmer,42.1584,-72.3287,28.99,54,20,6.02,US,1612660261
stornoway,58.2093,-6.3865,37.4,70,40,20.71,GB,1612660282
jacareacanga,-6.2222,-57.7528,74.68,94,100,2.1,BR,1612660282
portland,45.5234,-122.6762,46.99,87,90,16.11,US,1612659780
zavetnyy,44.9316,41.1373,30.4,99,100,5.77,RU,1612660283
siddapur,14.3333,74.8833,62.31,51,95,5.46,IN,1612660283
los llanos de aridane,28.6585,-17.9182,60.8,72,0,12.66,ES,1612660283
shaunavon,49.6501,-108.4181,-9.4,77,100,6.91,CA,1612660284
montepuez,-13.1256,38.9997,69.64,99,100,2.44,MZ,1612660284
kurchum,48.5722,83.6542,16.68,94,100,1.72,KZ,1612660284
ibi,38.6253,-0.5723,57,54,37,5.01,ES,1612660284
mitu,1.1983,-70.1733,73.24,96,100,1.88,CO,1612660285
okha,53.5739,142.9478,2.82,94,100,7.7,RU,1612660009
golden,39.7555,-105.2211,41,30,40,9.22,US,1612660039
lawrenceburg,38.0373,-84.8966,34,80,1,6.33,US,1612660285
acarau,-2.8856,-40.12,78.55,83,52,11.34,BR,1612660157
borgarnes,64.5383,-21.9206,35.6,44,0,16.11,IS,1612660286
poum,-20.2333,164.0167,79.99,68,0,4.83,NC,1612660286
alekseyevskoye,55.3071,50.1135,-4,71,75,17.9,RU,1612660286
waipawa,-41.4122,175.5153,75.99,68,100,9.22,NZ,1612660286
kayerkan,69.3497,87.7602,-28.82,76,0,4.61,RU,1612660287
swan hill,-35.3378,143.5544,72.12,46,69,10.85,AU,1612660287
antofagasta,-23.65,-70.4,66.2,77,75,8.05,CL,1612660246
sri aman,1.2376,111.4621,77,100,40,1.34,MY,1612660287
itarema,-2.9248,-39.9167,78.42,83,39,10.04,BR,1612660287
vizinga,61.0749,50.1031,-8.57,88,100,11.21,RU,1612660288
la rioja,42.25,-2.5,39.2,87,20,3.44,ES,1612660288
cross lanes,38.4204,-81.7907,37.4,60,75,3.76,US,1612660288
ryotsu,38.0833,138.4333,44.6,87,75,13.8,JP,1612659744
sola,-13.8833,167.55,82.26,71,77,3.74,VU,1612659504
kaitangata,-46.2817,169.8464,66,74,11,8.01,NZ,1612660289
alice springs,-23.7,133.8833,84.99,26,8,14.97,AU,1612660289
turukhansk,65.8167,87.9833,-3.41,89,100,12.39,RU,1612659745
rio gallegos,-51.6226,-69.2181,59,41,0,4.61,AR,1612659561
bahia honda,22.9036,-83.1592,75.78,86,8,9.31,CU,1612659745
havoysund,70.9963,24.6622,27.68,93,100,23.26,NO,1612660290
sandpoint,48.2766,-116.5533,34,100,90,6.91,US,1612659684
chaparral,3.7232,-75.4832,71.55,80,71,4.21,CO,1612659551
emporia,38.4039,-96.1817,17.6,79,75,9.22,US,1612659746
jiangyou,31.7667,104.7167,50.38,55,0,3.13,CN,1612659747
athens,37.9795,23.7162,59,87,0,2.13,GR,1612660158
mecca,21.4267,39.8261,64.63,59,0,5.59,SA,1612659747
petropavlovsk-kamchatskiy,53.0452,158.6483,28.4,59,40,13.42,RU,1612660226
tambacounda,13.7539,-13.7586,75.2,38,0,4.61,SN,1612659747
bengkulu,-3.8004,102.2655,79.27,71,99,4.23,ID,1612660277
gat,31.61,34.7642,55.99,100,0,1.52,IL,1612659465
puebloviejo,10.9938,-74.2844,86,58,20,9.22,CO,1612659748
omsukchan,62.5333,155.8,-3.03,87,100,8.52,RU,1612659748
buala,-8.145,159.5921,79.48,79,100,7.02,SB,1612660293
baruun-urt,46.6806,113.2792,-9.22,84,0,8.95,MN,1612659749
wanning,18.8003,110.3967,69.93,81,24,3.53,CN,1612660294
progreso,21.2833,-89.6667,82.4,61,20,6.91,MX,1612659737
fuerte,17.5381,120.3644,80.83,65,22,2.46,PH,1612659750
aksarka,66.5606,67.7975,-34.17,82,100,21.45,RU,1612659751
san jose,37.3394,-121.895,69.8,23,20,6.91,US,1612659512
pareora,-44.4871,171.2132,66.99,76,0,3,NZ,1612659751
porto seguro,-16.4497,-39.0647,78.8,78,20,9.22,BR,1612659751
tura,25.5198,90.2201,57.83,62,100,1.92,IN,1612660296
langres,47.8333,5.3333,46.99,100,90,4.61,FR,1612659752
steinfurt,52.1505,7.3366,28,76,100,10,DE,1612659752
varena,54.2167,24.5667,-4,77,75,2.3,LT,1612659753
iraquara,-12.2486,-41.6194,69.64,85,100,3.27,BR,1612659753
anshun,26.25,105.9333,50.94,82,100,6.87,CN,1612659753
lundazi,-12.2929,33.1782,64.31,88,100,4.79,ZM,1612659753
beringovskiy,63.05,179.3167,-6.21,90,84,9.75,RU,1612660297
tuatapere,-46.1333,167.6833,72.21,45,13,3.29,NZ,1612660297
hervey bay,-25.2986,152.8535,91,48,0,5.75,AU,1612659754
orem,40.2969,-111.6946,46.4,42,40,8.05,US,1612659592
mudanjiang,44.5833,129.6,-0.33,87,0,3.89,CN,1612659754
iqaluit,63.7506,-68.5145,26.6,68,90,11.5,CA,1612660298
bubaque,11.2833,-15.8333,79.39,53,26,21.94,GW,1612659547
dong hoi,17.4833,106.6,68.85,90,96,2.42,VN,1612659756
moroni,-11.7022,43.2551,80.82,76,98,5.97,KM,1612659756
gwadar,25.1216,62.3254,64.27,59,0,5.44,PK,1612659494
byron bay,-28.65,153.6167,84.2,65,99,8.05,AU,1612660299
muborak,39.2553,65.1528,50.86,75,100,5.03,UZ,1612659757
beysehir,37.6773,31.7246,44.46,60,0,3.29,TR,1612659757
marsabit,2.3284,37.9899,68.63,62,3,6.55,KE,1612659757
borogontsy,62.6683,131.1683,-31.7,82,100,3.44,RU,1612659757
kloulklubed,7.0419,134.2556,77,94,90,14.97,PW,1612660300
mareeba,-17,145.4333,90,79,99,5.75,AU,1612660267
camabatela,-8.1881,15.375,64.87,100,100,4.83,AO,1612659551
santa cruz de la palma,28.6835,-17.7642,60.8,77,0,9.22,ES,1612659758
qaqortoq,60.7167,-46.0333,22.73,82,100,5.26,GL,1612660008
lieto,60.5103,22.4618,8.01,92,75,4.61,FI,1612659759
aksu,41.1231,80.2644,26.85,79,100,2.21,CN,1612659759
necochea,-38.5473,-58.7368,61,82,0,4,AR,1612659760
linjiang,41.8069,126.9078,15.98,83,0,1.61,CN,1612659760
shumikha,55.2261,63.2961,11.35,95,100,21.21,RU,1612659761
porto velho,-8.7619,-63.9039,77,94,40,2.3,BR,1612659761
saint-pierre,-21.3393,55.4781,78.8,73,75,6.91,RE,1612660303
laguna,38.421,-121.4238,62.6,48,1,4.61,US,1612660303
lawrence,38.9717,-95.2353,17.01,79,90,11.5,US,1612659565
rutana,-3.8667,30.1,59.88,97,100,1.59,BI,1612659762
camacha,33.0833,-16.3333,59,63,40,12.66,PT,1612659762
sao felix do xingu,-6.6447,-51.995,73.2,93,99,1.21,BR,1612660304
ardakan,32.31,54.0175,48.2,46,0,4.61,IR,1612659762
broome,42.2506,-75.833,24.8,33,1,3.44,US,1612659488
komsomolskiy,40.4272,71.7189,39.2,60,99,2.3,UZ,1612659764
pangody,65.85,74.4859,-17.59,87,100,15.19,RU,1612660258
vanavara,60.34,102.2797,12.11,95,100,11.88,RU,1612660305
riverton,40.5219,-111.9391,46.4,52,75,14.97,US,1612659689
port-gentil,-0.7193,8.7815,81.66,79,100,14.29,GA,1612660267
boden,65.8252,21.6886,14,92,90,12.66,SE,1612659508
simao,22.7886,100.9748,56.07,94,64,1.1,CN,1612659765
abu samrah,35.3029,37.1841,49.06,73,0,4.54,SY,1612659765
salalah,17.0151,54.0924,73.4,68,75,5.75,OM,1612660245
martapura,-3.4167,114.85,78.8,94,40,3.44,ID,1612659765
ayagoz,47.9714,80.4392,31.59,92,100,20.83,KZ,1612659766
jardim,-21.4803,-56.1381,67.98,74,0,3.56,BR,1612659766
kilimatinde,-5.85,34.95,66.49,95,100,2.15,TZ,1612659766
karpogory,64.0019,44.4451,-17.7,85,61,9.69,RU,1612660307
neiafu,-18.65,-173.9833,78.8,94,90,12.66,TO,1612659767
husavik,66.0449,-17.3389,32,74,75,3.44,IS,1612659767
qingyuan,23.7,113.0333,71.01,72,0,2.24,CN,1612659767
kihei,20.785,-156.4656,78.8,47,20,10.36,US,1612659768
diamantino,-14.4086,-56.4461,76.03,75,100,0.63,BR,1612659768
lisakovsk,52.5369,62.4936,7.27,89,68,26.35,KZ,1612659545
tabou,4.423,-7.3528,79.09,89,0,9.15,CI,1612660308
beloha,-25.1667,45.05,74.1,95,22,3.78,MG,1612659768
jiangkou,25.4872,119.1986,60.8,88,90,2.24,CN,1612659769
morant bay,17.8815,-76.4093,80.6,74,20,20.71,JM,1612659769
mashhad,36.297,59.6062,39.2,87,0,4.61,IR,1612659769
noumea,-22.2763,166.4572,86,70,75,9.22,NC,1612659769
balaipungut,1.05,101.2833,77,88,40,1.32,ID,1612659628
turochak,52.2576,87.1224,17.37,93,0,4.05,RU,1612659770
asosa,10.0667,34.5333,57.7,31,0,7.45,ET,1612659494
beyneu,45.3167,55.2,28.99,84,42,6.08,KZ,1612659593
shingu,33.7333,135.9833,51.8,62,40,6.91,JP,1612659770
brattvag,62.6002,6.4434,28.4,64,0,14.97,NO,1612659771
wiarton,44.7407,-81.1332,19.4,68,90,18.41,CA,1612659771
sun city west,33.662,-112.3413,70,17,1,5.75,US,1612659501
opuwo,-18.0607,13.84,71.01,46,99,3.96,NA,1612659771
sept-iles,50.2001,-66.3821,30.2,80,100,11.5,CA,1612659662
laerdalsoyri,61.098,7.4816,6.01,84,0,1.99,NO,1612659772
bogorodskoye,56.55,37.8833,-2.13,92,100,11.54,RU,1612659772
magnitka,55.3475,59.6961,-2.52,87,100,21.83,RU,1612659772
malinao,7.5917,124.6889,75.54,69,98,4.05,PH,1612659772
longview,32.5007,-94.7405,46.4,71,90,17.27,US,1612659772
homer,59.6425,-151.5483,33.8,60,1,9.22,US,1612659773
belmonte,-15.8631,-38.8828,78.8,78,20,9.22,BR,1612659514
mehamn,71.0357,27.8492,25.77,93,100,21.9,NO,1612660313
cayenne,4.9333,-52.3333,77,100,90,1.14,GF,1612659773
tuzla,44.5428,18.6694,41,93,0,2.3,BA,1612659774
ilhabela,-23.7781,-45.3581,71.87,78,9,2.8,BR,1612659774
hirado,33.3597,129.5531,55.99,87,40,3.44,JP,1612659674
yuzhno-sukhokumsk,44.6581,45.6436,35.69,93,100,3.91,RU,1612659774
ridgecrest,35.6225,-117.6709,68,11,1,4.61,US,1612659775
tooele,40.5308,-112.2983,50,32,1,8.05,US,1612659663
dafeng,23.4517,108.5881,68.09,68,0,5.59,CN,1612659775
mahibadhoo,3.7833,72.9667,81.21,74,68,11.45,MV,1612659721
nieuwpoort,51.1244,2.7735,32,100,90,17.27,BE,1612659775
san miguelito,9.0333,-79.5,82.4,78,75,10.36,PA,1612659776
saint john,45.2727,-66.0677,33.8,69,20,8.05,CA,1612659771
ixtapa,20.7,-105.2,73.4,78,20,8.05,MX,1612659624
tarakan,3.3,117.6333,78.8,94,75,5.75,ID,1612659776
nador,35.174,-2.9287,57.2,67,0,6.91,MA,1612659777
lorengau,-2.0226,147.2712,85.77,67,100,5.73,PG,1612659777
okaihau,-35.3167,173.7833,69.01,76,100,8.99,NZ,1612659777
ekhabi,53.5102,142.9671,3.16,94,100,7.14,RU,1612659777
riyadh,24.6877,46.7219,55.4,71,0,5.75,SA,1612659502
wawa,9.9022,4.4192,77.13,26,52,3.09,NG,1612659778
pangnirtung,66.1451,-65.7125,23.81,80,87,3.47,CA,1612660240
wheeling,42.1392,-87.929,10,78,90,8.05,US,1612659778
krasnyy yar,46.5331,48.3456,24.8,86,90,7.11,RU,1612659779
haines junction,60.7522,-137.5108,-14.8,70,73,1.14,CA,1612659779
manokwari,-0.8667,134.0833,77.86,87,100,2.82,ID,1612659779
singaraja,-8.112,115.0882,82.96,73,35,5.21,ID,1612659754
kalmunai,7.4167,81.8167,76.15,89,94,7.43,LK,1612660318
batagay-alyta,67.8006,130.4114,-27,83,100,1.63,RU,1612659780
port hardy,50.6996,-127.4199,44.6,75,75,9.22,CA,1612659649
mtwango,-9.0167,34.8,60.12,97,100,1.83,TZ,1612659501
masuguru,-11.3667,38.4167,73.44,97,100,2.77,TZ,1612659781
fare,-16.7,-151.0167,82.54,67,5,10.8,PF,1612659552
yenagoa,4.9247,6.2642,79,90,77,4.54,NG,1612659781
fereydunshahr,32.941,50.121,29.35,98,100,1.95,IR,1612659781
kisesa,-3.0833,34.15,66.31,81,100,6.38,TZ,1612659782
hamilton,39.1834,-84.5333,30.99,51,1,3.44,US,1612659537
ulladulla,-35.35,150.4667,78.01,57,40,5.75,AU,1612659782
srednekolymsk,67.45,153.6833,-14.62,83,0,0.98,RU,1612659783
kudahuvadhoo,2.6708,72.8944,80.87,79,0,14.18,MV,1612659783
sindor,62.8629,51.8905,-18.62,87,100,11.18,RU,1612659783
umm kaddadah,13.6017,26.6876,57.04,37,0,12.95,SD,1612659784
auki,-8.7676,160.7034,76.44,93,100,12.8,SB,1612659784
vrangel,42.7297,133.0839,15.82,80,0,12.37,RU,1612659784
marzuq,14.4,46.4667,56.75,69,0,2.17,YE,1612660322
katherine,-14.4667,132.2667,75.2,94,90,5.75,AU,1612659785
neuquen,-38.9516,-68.0591,86,48,0,4.61,AR,1612659732
kitimat,54.0524,-128.6534,34,93,99,2.89,CA,1612659785
champerico,14.3,-91.9167,84.2,61,20,6.91,GT,1612660323
belaya gora,68.5333,146.4167,-31.47,83,0,1.05,RU,1612660323
halifax,44.6453,-63.5724,33.8,75,24,16.11,CA,1612659516
san patricio,28.017,-97.5169,66.2,52,1,3.44,US,1612660324
high level,58.5169,-117.136,-18.4,63,1,2.3,CA,1612659505
farah,32.5,62.5,45.05,49,90,0.74,AF,1612659787
imbituba,-28.24,-48.6703,73.4,73,0,5.75,BR,1612659536
arman,59.7,150.1667,11.1,87,100,15.59,RU,1612660325
kanniyakumari,8.0833,77.5667,75.34,67,0,17.72,IN,1612659788
ganta,7.3022,-8.5308,72.01,95,91,3.11,LR,1612659788
port hedland,-20.3167,118.5667,86,62,40,12.66,AU,1612660325
penzance,50.1186,-5.5371,39,93,50,16.11,GB,1612659789
tuy hoa,13.0833,109.3,72.45,86,100,6.51,VN,1612659570
saint-augustin,51.226,-58.6502,33.51,96,100,17.87,CA,1612660326
ugoofaaru,5.6667,73,81.39,72,23,10.45,MV,1612659790
ninghai,29.2892,121.4247,60.01,100,94,2.24,CN,1612659790
sangar,63.9242,127.4739,-36.78,79,15,6.62,RU,1612659790
usinsk,65.9939,57.5281,-33.05,82,100,14.85,RU,1612659791
aswan,24.0934,32.907,56.43,60,0,5.17,EG,1612659542
meulaboh,4.1363,96.1285,78.12,82,44,4.14,ID,1612659791
xiaoweizhai,26.1903,107.5125,54.63,78,90,2.42,CN,1612659791
tocopilla,-22.092,-70.1979,68.67,68,9,5.73,CL,1612659496
porto novo,6.4965,2.6036,84.2,84,40,14.97,BJ,1612659544
vanimo,-2.6741,141.3028,82.29,78,100,4.27,PG,1612659672
lesnoy,57.6198,63.0784,5.5,95,100,15.39,RU,1612659792
norman,35.2226,-97.4395,32,93,90,19.57,US,1612659765
vigrestad,58.5667,5.7,12.99,85,0,2.3,NO,1612659793
konstantinovka,49.6167,127.9833,-13.58,88,99,5.57,RU,1612659793
sulina,45.1559,29.6536,38.25,91,100,13.29,RO,1612659793
