City,Lat,Lng,Max_Temp,Humidity,Cloudiness,Wind_Speed,Country,Date,City ID
san quintin,30.4833,-115.95,60.12,72,0,6.78,MX,1612662281,0
saint-philippe,-21.3585,55.7679,78.8,73,75,6.91,RE,1612661914,0
vila franca do campo,37.7167,-25.4333,59,88,75,23.02,PT,1612662435,0
albany,42.6001,-73.9662,26.01,46,0,2.91,US,1612662162,0
butaritari,3.0707,172.7902,81.23,79,38,20.22,KI,1612662251,0
nikolskoye,59.7035,30.7861,10.4,85,75,15.66,RU,1612662436,0
ushuaia,-54.8,-68.3,50,76,75,12.66,AR,1612662403,0
nouadhibou,20.931,-17.0347,60.8,72,0,16.11,MR,1612662436,0
sioux lookout,50.1001,-91.917,-13,64,90,11.5,CA,1612662437,0
lyubech,51.7026,30.6569,5.49,93,39,6.17,UA,1612662437,0
dikson,73.5069,80.5464,-27.47,87,90,9.57,RU,1612662437,0
amapa,1,-52,71.62,98,94,1.79,BR,1612662437,0
rikitea,-23.1203,-134.9692,78.78,69,73,10.56,PF,1612662438,0
jamestown,42.097,-79.2353,17.6,49,1,6.91,US,1612662390,0
mahebourg,-20.4081,57.7,75,86,0,3,MU,1612662438,0
hilo,19.7297,-155.09,78.8,53,75,5.75,US,1612662438,0
cassilandia,-19.1133,-51.7342,68.7,76,0,1.7,BR,1612662439,0
victoria,22.2855,114.1577,73,46,0,11.01,HK,1612662273,0
bichena,10.45,38.2,49.39,47,100,2.55,ET,1612662439,0
lysva,58.1086,57.8053,4.98,93,100,10.45,RU,1612662439,0
tasiilaq,65.6145,-37.6368,33.8,55,72,28.77,GL,1612662440,0
cape town,-33.9258,18.4232,70,83,20,11.5,ZA,1612662197,0
port alfred,-33.5906,26.891,68,87,37,5.01,ZA,1612662440,0
malanje,-9.5402,16.341,64.83,98,100,5.01,AO,1612662440,0
hobart,-42.8794,147.3294,68,63,75,17.27,AU,1612662440,0
punta arenas,-53.15,-70.9167,51.8,66,0,17.27,CL,1612662441,0
manresa,41.725,1.8266,52,81,0,4,ES,1612662441,0
egvekinot,66.3167,-179.1667,-3.95,77,0,6.76,RU,1612661850,0
east london,-33.0153,27.9116,72.7,87,75,17.58,ZA,1612662249,0
puerto ayora,-0.7393,-90.3518,77,94,66,6.76,EC,1612662442,0
namibe,-15.1961,12.1522,70.39,80,67,5.32,AO,1612662442,0
bathsheba,13.2167,-59.5167,77.22,79,97,18.72,BB,1612662442,0
mataura,-46.1927,168.8643,81.88,46,13,1.63,NZ,1612662442,0
lebu,-37.6167,-73.65,57.81,93,24,1.86,CL,1612662442,0
carnarvon,-24.8667,113.6333,84.2,100,40,13.8,AU,1612662443,0
pevek,69.7008,170.3133,-6.57,87,0,4.9,RU,1612662443,0
cockburn town,21.4612,-71.1419,77.47,78,0,23.31,TC,1612662443,0
hinton,53.4001,-117.5857,-0.4,55,100,8.05,CA,1612662443,0
airai,-8.9266,125.4092,72.81,74,72,5.39,TL,1612662444,0
ulety,51.3572,112.4849,-1.14,87,100,3.18,RU,1612662444,0
saint george,37.1041,-113.5841,57.2,17,1,11.5,US,1612662444,0
the valley,18.217,-63.0578,78.01,83,4,5.01,AI,1612662444,0
ribeira grande,38.5167,-28.7,61.14,88,95,21.88,PT,1612662444,0
pamanukan,-6.2842,107.8106,80.01,86,100,10.87,ID,1612662445,0
atuona,-9.8,-139.0333,79.99,80,73,18.21,PF,1612662445,0
aran,40.6253,46.9756,37.4,93,90,9.22,AZ,1612662445,0
barrow,71.2906,-156.7887,-5.8,77,90,14.97,US,1612662445,0
cidreira,-30.1811,-50.2056,67.48,77,10,5.3,BR,1612662445,0
rosarito,32.3333,-117.0333,60.8,67,1,9.22,MX,1612662446,0
slave lake,55.2834,-114.769,-23.8,76,1,2.3,CA,1612662308,0
saskylakh,71.9167,114.0833,-42,78,24,7.58,RU,1612662446,0
taksimo,56.3444,114.8794,-8.27,79,2,0.16,RU,1612662151,0
severo-kurilsk,50.6789,156.125,22.71,93,93,21.92,RU,1612662286,0
vaini,-21.2,-175.2,84.2,84,75,9.22,TO,1612662447,0
vila velha,-20.3297,-40.2925,82.99,83,75,9.22,BR,1612662415,0
kirakira,-10.4544,161.9205,79.56,86,100,8.79,SB,1612662447,0
norman wells,65.282,-126.8329,-27.4,68,75,2.3,CA,1612662447,0
kushmurun,52.4503,64.6311,7.21,90,91,21.14,KZ,1612662448,0
lompoc,34.6391,-120.4579,60.8,63,1,9.22,US,1612662448,0
flin flon,54.7682,-101.865,-29.51,82,2,8.48,CA,1612662448,0
afyonkarahisar,38.75,30.6667,42.31,64,0,3.27,TR,1612662448,0
emerald,-23.5333,148.1667,98.01,46,75,5.75,AU,1612662449,0
kodiak,57.79,-152.4072,37.4,65,1,10.36,US,1612662448,0
marawi,7.9986,124.2928,80.01,82,65,3,PH,1612662449,0
avarua,-21.2078,-159.775,86,66,20,11.5,CK,1612662251,0
haimen,23.1935,116.6142,62.6,77,75,4.47,CN,1612662449,0
busselton,-33.65,115.3333,62.01,95,100,1.99,AU,1612662445,0
dingle,10.9995,122.6711,81.48,81,79,15.01,PH,1612661938,0
kieta,-6.2167,155.6333,87.33,64,85,8.01,PG,1612662450,0
praia da vitoria,38.7333,-27.0667,60.8,82,20,13.76,PT,1612662451,0
upernavik,72.7868,-56.1549,18.97,75,0,4.59,GL,1612662451,0
sulangan,11.1373,123.7228,80.67,81,68,12.46,PH,1612662451,0
berlevag,70.8578,29.0864,26.74,94,100,25.59,NO,1612662451,0
aliwal north,-30.6937,26.7114,63.97,79,1,2.46,ZA,1612662451,0
vardo,70.3705,31.1107,26.91,92,100,29.37,NO,1612662452,0
castro,-24.7911,-50.0119,61.25,92,42,10.87,BR,1612662260,0
kapaa,22.0752,-159.319,73.99,49,40,6.91,US,1612662240,0
buraydah,26.326,43.975,48.2,100,75,6.91,SA,1612662339,0
ukhta,63.5671,53.6835,-26.66,84,100,12.01,RU,1612662452,0
nishihara,26.1842,127.7558,71.6,56,20,6.91,JP,1612662452,0
hermanus,-34.4187,19.2345,66.99,94,98,4.76,ZA,1612662453,0
flinders,-34.5833,150.8552,79,77,22,5.01,AU,1612662453,0
kungurtug,50.5994,97.5228,3.79,86,0,1.83,RU,1612662453,0
tiksi,71.6872,128.8694,-25.76,84,100,5.35,RU,1612662454,0
yining,29.0361,114.5636,61.36,69,39,0.87,CN,1612662454,0
bullhead city,35.1478,-114.5683,68,13,1,6.91,US,1612662454,0
thompson,55.7435,-97.8558,-27.4,68,40,12.66,CA,1612662454,0
paamiut,61.994,-49.6678,25.12,81,50,3.51,GL,1612662454,0
jalu,29.0331,21.5482,57.87,43,0,8.77,LY,1612662368,0
mount gambier,-37.8333,140.7667,62.6,59,90,13.8,AU,1612662455,0
bethel,41.3712,-73.414,35.01,59,1,4.74,US,1612662197,0
abu kamal,34.4506,40.9171,51.4,55,0,9.69,SY,1612662455,0
atar,20.5169,-13.0499,57.7,39,47,12.48,MR,1612662455,0
goulburn,-34.75,149.7167,75.99,47,0,1.99,AU,1612662340,0
bloomington,44.8408,-93.2983,-5.8,59,20,14.97,US,1612662436,0
tema,5.667,-0.0166,82.4,89,20,9.22,GH,1612662456,0
chuy,-33.6971,-53.4616,66.58,90,0,8.77,UY,1612662456,0
sitka,57.0531,-135.33,33.8,55,40,6.91,US,1612662455,0
hithadhoo,-0.6,73.0833,81.3,75,61,12.77,MV,1612662457,0
woodward,36.4337,-99.3904,24.8,80,90,8.05,US,1612662457,0
mysliborz,52.9238,14.8679,21,54,100,8.99,PL,1612662457,0
georgetown,5.4112,100.3354,82.4,74,20,8.05,MY,1612662457,0
djenne,13.9061,-4.5533,77.32,18,93,15.35,ML,1612662458,0
kashi,39.4547,75.9797,33.8,51,20,11.18,CN,1612662458,0
kavieng,-2.5744,150.7967,85.33,64,29,2.33,PG,1612662274,0
kokologo,12.1897,-1.8856,77,27,100,5.75,BF,1612662459,0
leh,34.1667,77.5833,4.77,48,0,2.53,IN,1612661934,0
shubarshi,48.5872,57.1869,12.45,94,100,8.9,KZ,1612662459,0
mataram,-8.5833,116.1167,84.2,79,20,6.91,ID,1612662459,0
koslan,63.4564,48.8989,-22.88,83,65,10.87,RU,1612662346,0
alta floresta,-9.8756,-56.0861,70.74,99,100,2.26,BR,1612662460,0
fairbanks,64.8378,-147.7164,-5.01,77,90,1.34,US,1612662460,0
camocim,-2.9022,-40.8411,78.94,81,0,12.75,BR,1612662460,0
carutapera,-1.195,-46.02,78.1,86,62,5.93,BR,1612662460,0
lavrentiya,65.5833,-171,-9.98,79,0,1.74,RU,1612662316,0
anloga,5.7947,0.8973,84.2,84,20,12.66,GH,1612662461,0
miyako,39.6367,141.9525,41.68,81,62,3.13,JP,1612662461,0
talnakh,69.4865,88.3972,-29.16,72,0,1.81,RU,1612662461,0
el alto,-4.2714,-81.2147,72.97,79,52,14.09,PE,1612662461,0
college,64.8569,-147.8028,-5.01,77,90,1.57,US,1612662290,0
cherskiy,68.75,161.3,-2.88,81,0,3.31,RU,1612662462,0
hami,42.8,93.45,33.22,72,99,5.53,CN,1612662462,0
mapastepec,15.4333,-92.9,72.75,65,6,3.33,MX,1612662462,0
chokurdakh,70.6333,147.9167,-21.35,86,98,4.23,RU,1612662247,0
doha,25.2867,51.5333,69.8,83,0,8.05,QA,1612662354,0
tomatlan,19.9333,-105.25,67.59,91,0,2.77,MX,1612662463,0
lasa,46.6166,10.7002,39,92,99,4.12,IT,1612662463,0
zatoka,46.0725,30.4654,26.6,80,75,6.71,UA,1612662463,0
las palmas,28.4204,-14.0131,59,77,40,10.36,ES,1612662464,0
nikolayevka,53.1257,47.2041,-3.71,88,95,11.59,RU,1612662464,0
hasaki,35.7333,140.8333,57,50,20,5.75,JP,1612662252,0
port hawkesbury,45.6169,-61.3485,32,69,20,16.11,CA,1612662464,0
san cristobal,7.7669,-72.225,66.36,90,100,1.21,VE,1612662294,0
fortuna,40.5982,-124.1573,48.99,93,90,11.5,US,1612662465,0
vidim,56.4088,103.1106,12.04,95,100,8.88,RU,1612662465,0
grindavik,63.8424,-22.4338,32,64,0,17.27,IS,1612662465,0
zumarraga,11.6388,124.8417,83.1,76,99,10.38,PH,1612662465,0
port elizabeth,-33.918,25.5701,63,89,4,1.01,ZA,1612662466,0
sorland,67.667,12.6934,35.56,80,100,18.3,NO,1612662454,0
plettenberg bay,-34.0527,23.3716,68.67,73,64,5.99,ZA,1612662183,0
shu,43.5983,73.7614,36.95,92,100,10.25,KZ,1612662466,0
esperance,-33.8667,121.9,60.8,94,75,12.66,AU,1612662465,0
qaanaaq,77.484,-69.3632,10.69,87,100,7.56,GL,1612662450,0
evensk,61.95,159.2333,18.84,85,100,27.11,RU,1612662467,0
alofi,-19.0595,-169.9187,86,70,100,12.66,NU,1612662467,0
henties bay,-22.116,14.2845,63,90,7,3,NA,1612662467,0
thinadhoo,0.5333,72.9333,81.48,74,12,13.24,MV,1612662467,0
olafsvik,64.8945,-23.7142,33.49,84,24,16.08,IS,1612662468,0
maxixe,-23.8597,35.3472,75.25,90,91,6.15,MZ,1612662468,0
columbus,39.9612,-82.9988,21.99,58,75,3.44,US,1612662296,0
mouila,-1.8685,11.0559,73.53,94,67,1.25,GA,1612662468,0
touros,-5.1989,-35.4608,77,88,20,4.61,BR,1612662469,0
sur,22.5667,59.5289,62.17,66,0,6.78,OM,1612662469,0
mar del plata,-38.0023,-57.5575,64,77,20,11.5,AR,1612662300,0
taoudenni,22.6783,-3.9836,59.5,35,70,9.78,ML,1612662406,0
newport,51.5877,-2.9984,41,90,100,18.19,GB,1612661932,0
shakawe,-18.3667,21.85,68.25,94,99,4.83,BW,1612662470,0
conakry,9.538,-13.6773,79,66,67,4.25,GN,1612662470,0
juba,4.8517,31.5825,67.78,24,5,2.53,SS,1612662470,0
shitanjing,39.2342,106.3439,28.63,76,0,1.07,CN,1612662470,0
hobyo,5.3505,48.5268,76.66,79,59,15.84,SO,1612662470,0
alyangula,-13.8483,136.4192,82.4,74,90,17.27,AU,1612662471,0
jacqueville,5.2052,-4.4146,82.4,94,40,10.36,CI,1612662471,0
isangel,-19.55,169.2667,86,79,20,5.75,VU,1612662471,0
port blair,11.6667,92.75,80.98,70,0,9.84,IN,1612662471,0
zhanaozen,43.3,52.8,33.17,83,29,7.76,KZ,1612662471,0
sao filipe,14.8961,-24.4956,69.31,74,18,14.97,CV,1612662472,0
skelleftea,64.7507,20.9528,17.01,86,75,6.91,SE,1612662472,0
cabo san lucas,22.8909,-109.9124,69.8,60,20,8.05,MX,1612662472,0
truro,50.2653,-5.0544,39,100,84,4.61,GB,1612662308,0
soyo,-6.1349,12.3689,79.93,87,95,8.99,AO,1612662473,0
tigil,57.8,158.6667,22.23,92,100,23.51,RU,1612662276,0
clyde river,70.4692,-68.5914,-7.6,77,90,2.3,CA,1612662272,0
mogadishu,2.0371,45.3438,75.42,84,0,16.22,SO,1612662473,0
daltenganj,24.0333,84.0667,54.3,60,0,3.31,IN,1612662473,0
wielun,51.221,18.5696,21,78,100,19.17,PL,1612662474,0
terenos,-20.4422,-54.8603,69.8,73,0,3.44,BR,1612662474,0
la ronge,55.1001,-105.2842,-23.8,62,43,5.75,CA,1612662268,0
cabrero,-37.0333,-72.4,64.4,88,90,4.61,CL,1612662475,0
kavaratti,10.5669,72.642,81.27,61,72,9.93,IN,1612662475,0
asyut,27.181,31.1837,51.71,67,0,4.27,EG,1612662475,0
provideniya,64.3833,-173.3,1.45,87,2,7.23,RU,1612662462,0
hlotse,-28.8718,28.045,60.33,79,96,3.2,LS,1612662476,0
maltahohe,-24.8333,16.9833,73.53,21,0,15.52,NA,1612662476,0
senno,59.5336,33.9167,3.78,95,100,6.62,RU,1612662476,0
klaksvik,62.2266,-6.589,33.8,75,75,18.41,FO,1612662244,0
izumo,35.3667,132.7667,51.8,66,75,9.22,JP,1612662477,0
palana,59.1167,159.9667,19.11,91,100,34.07,RU,1612662477,0
sovetskiy,61.3614,63.5842,-10.84,90,100,13.47,RU,1612662477,0
sao geraldo do araguaia,-6.4006,-48.555,75.2,84,83,1.92,BR,1612662477,0
zaozerne,45.1582,33.2787,37,83,100,1.01,UA,1612662477,0
saint anthony,45.0205,-93.218,-5.8,59,1,13.8,US,1612662264,0
vanino,49.0869,140.2543,3.58,82,70,4.25,RU,1612662323,0
bambous virieux,-20.3428,57.7575,75,86,3,3,MU,1612662478,0
puerto narino,-3.7703,-70.3831,78.8,94,75,3.44,CO,1612662478,0
kapit,2.0167,112.9333,81.09,82,100,1.07,MY,1612662478,0
inhambane,-23.865,35.3833,76.26,88,93,6.69,MZ,1612662472,0
harper,4.375,-7.7169,79.03,88,5,8.21,LR,1612662293,0
narsaq,60.9167,-46.05,22.68,81,100,3.83,GL,1612662479,0
djibo,14.1022,-1.6306,77.49,18,100,9.37,BF,1612662479,0
presidencia roque saenz pena,-26.7852,-60.4388,71.55,49,0,5.55,AR,1612662461,0
lima,-12.0432,-77.0282,75,78,75,10.36,PE,1612662342,0
vostok,46.4856,135.8833,-3.91,89,100,3.83,RU,1612662364,0
manzil salim,35.8567,8.4765,59,63,40,31.07,TN,1612662481,0
mattru,7.6244,-11.8332,74.89,82,50,2.13,SL,1612662386,0
geraldton,-28.7667,114.6,73.4,78,75,23.02,AU,1612662481,0
grand-santi,4.25,-54.3833,73,97,100,2.59,GF,1612662481,0
general roca,-39.0333,-67.5833,78.8,61,0,9.31,AR,1612662481,0
viedma,-40.8135,-62.9967,63,69,100,17.25,AR,1612662347,0
ponta do sol,32.6667,-17.1,54,66,23,5.01,PT,1612662270,0
algeciras,36.1333,-5.4505,53.6,76,75,16.11,ES,1612662482,0
aklavik,68.2191,-135.0107,-16.6,76,100,4.61,CA,1612662252,0
maribo,54.7766,11.5002,28.99,72,100,14,DK,1612662482,0
labuhan,-6.8844,112.2051,83.25,77,3,12.88,ID,1612662483,0
bluff,-46.6,168.3333,61.45,71,0,7.96,NZ,1612662445,0
dunedin,-45.8742,170.5036,61,77,0,25.01,NZ,1612662330,0
khilok,51.3674,110.4676,4.03,91,100,3.06,RU,1612662483,0
sao joao da barra,-21.6403,-41.0511,71.1,96,100,14.67,BR,1612662483,0
nizwa,22.9333,57.5333,48.79,64,0,0.72,OM,1612662484,0
gorom-gorom,14.4439,-0.2361,76.42,19,100,10.09,BF,1612662187,0
wajima,37.4,136.9,48.61,76,99,17.4,JP,1612662484,0
huallanca,-9.8993,-76.9417,46.2,77,100,2.89,PE,1612662484,0
eureka,40.8021,-124.1637,51.01,83,1,5.01,US,1612662484,0
pemangkat,1.1667,108.9667,81.14,80,52,4.07,ID,1612662472,0
bilibino,68.0546,166.4372,-3.21,79,0,3.6,RU,1612662485,0
umm lajj,25.0213,37.2685,67.75,49,0,18.84,SA,1612662485,0
pacific grove,36.6177,-121.9166,55,94,20,4.61,US,1612662485,0
algarrobo,10.1869,-74.5753,80.01,76,100,6.78,CO,1612662486,0
nara,34.6851,135.8049,57,71,20,2.3,JP,1612662486,0
prince rupert,54.3161,-130.3201,41,81,90,8.05,CA,1612662486,0
shamsabad,27.0167,78.1333,50.76,59,0,6.02,IN,1612662486,0
karasburg,-28.0167,18.75,66.9,41,0,8.97,NA,1612662486,0
aracati,-4.5617,-37.7697,79.36,77,0,9.22,BR,1612662487,0
umkomaas,-30.2067,30.7978,75.99,91,100,1.01,ZA,1612662487,0
ewa beach,21.3156,-158.0072,78.8,44,1,14.97,US,1612662483,0
kargasok,59.0556,80.8572,33.04,95,100,13.94,RU,1612662487,0
new norfolk,-42.7826,147.0587,68,46,82,5.01,AU,1612662470,0
padang,-0.9492,100.3543,82.4,69,20,2.3,ID,1612662459,0
quilali,13.567,-86.026,71.69,81,30,1.74,NI,1612662488,0
calvinia,-31.4707,19.776,60.21,78,0,3.56,ZA,1612662488,0
rocha,-34.4833,-54.3333,63.48,94,3,4.12,UY,1612662317,0
winnemucca,40.973,-117.7357,50,32,1,13.8,US,1612662488,0
grand-lahou,5.1367,-5.0242,79.29,89,8,10.29,CI,1612662489,0
yanam,16.7333,82.2167,68,88,86,9.22,IN,1612662489,0
antalaha,-14.9003,50.2788,74.43,87,99,4.14,MG,1612662489,0
kikwit,-5.041,18.8162,72.91,88,100,1.3,CD,1612662489,0
spirit river,55.7833,-118.8361,-23.8,83,0,2.3,CA,1612662490,0
namatanai,-3.6667,152.4333,86.16,63,86,6.6,PG,1612662490,0
bonito,-21.1211,-56.4819,66.52,75,0,3.27,BR,1612662490,0
arraial do cabo,-22.9661,-42.0278,72.1,84,100,7.67,BR,1612662397,0
muisne,0.6,-80.0333,78.33,87,98,3.09,EC,1612662491,0
marshall,34.3834,-86.3333,39,93,90,8.05,US,1612662491,0
oranjemund,-28.55,16.4333,64.89,91,86,16.31,NA,1612662491,0
eyl,7.9803,49.8164,74.07,85,27,11.81,SO,1612662491,0
znamenskoye,57.1281,73.8282,28.13,98,100,14.63,RU,1612662492,0
kargil,34.5667,76.1,-9.44,64,0,0.98,IN,1612662492,0
marsaxlokk,35.8419,14.5431,63,88,0,9.22,MT,1612662229,0
murgab,37.4966,61.9714,44.6,81,75,4.61,TM,1612662492,0
nantucket,41.2835,-70.0995,39.2,70,1,16.11,US,1612662484,0
grand gaube,-20.0064,57.6608,75,86,2,3,MU,1612662452,0
ancud,-41.8697,-73.8203,63,51,0,11.5,CL,1612662493,0
acarigua,9.5545,-69.1956,75.51,66,91,7.96,VE,1612662493,0
nanortalik,60.1432,-45.2371,24.98,88,100,9.28,GL,1612662494,0
kahului,20.8947,-156.47,78.8,50,40,11.5,US,1612662250,0
salym,60.0625,71.4789,33.82,92,100,10.45,RU,1612662494,0
khatanga,71.9667,102.5,-35.28,78,0,8.55,RU,1612662494,0
lata,40.1629,-8.3327,50,83,29,1.99,PT,1612662277,0
bredasdorp,-34.5322,20.0403,66.2,88,98,3.44,ZA,1612662495,0
banda aceh,5.5577,95.3222,82.08,72,48,7.7,ID,1612662495,0
nola,40.922,14.5329,60.01,58,0,2.3,IT,1612662495,0
nuuk,64.1835,-51.7216,33.8,44,20,18.41,GL,1612662495,0
kruisfontein,-34.0033,24.7314,63,89,1,1.01,ZA,1612662430,0
pisco,-13.7,-76.2167,71.6,83,75,9.22,PE,1612662304,0
horta,38.5333,-28.6333,60.19,90,97,22.28,PT,1612662496,0
souillac,-20.5167,57.5167,77,83,40,4.61,MU,1612661921,0
ust-kuyga,70.0167,135.6,-27.47,82,100,4.7,RU,1612662496,0
barcelos,41.5388,-8.6151,42.01,87,0,4.61,PT,1612662497,0
constitucion,-35.3333,-72.4167,57.38,87,32,4.29,CL,1612662281,0
hualmay,-11.0964,-77.6139,70.93,78,100,7.43,PE,1612662475,0
pilar do sul,-23.8131,-47.7164,63.37,91,38,6.82,BR,1612662497,0
nome,64.5011,-165.4064,17.6,73,90,3.44,US,1612662290,0
coihaique,-45.5752,-72.0662,68,40,0,19.57,CL,1612662489,0
zilair,52.2332,57.4392,-0.49,91,100,16.69,RU,1612662498,0
longyearbyen,78.2186,15.6401,15.8,86,75,12.66,SJ,1612662498,0
luanda,-8.8368,13.2343,78.8,83,75,4.61,AO,1612662498,0
mugur-aksy,50.35,90.5,5.18,85,0,6.62,RU,1612662498,0
burnie,-41.0667,145.9167,61,85,5,5.01,AU,1612662499,0
changying,52.8733,123.3213,-9.76,85,37,3.09,CN,1612662499,0
zeya,53.75,127.2667,-6.77,80,0,3.02,RU,1612662499,0
zorritos,-3.6805,-80.6782,78.35,70,57,10.22,PE,1612662499,0
labrea,-7.2586,-64.7981,75.07,94,98,1.19,BR,1612662499,0
zhengjiatun,43.5064,123.5064,7.32,91,27,11.63,CN,1612662500,0
lufilufi,-13.8745,-171.5986,77,94,90,11.5,WS,1612662500,0
yellowknife,62.456,-114.3525,-40,74,1,3.44,CA,1612662208,0
ambilobe,-13.2,49.05,72.72,94,99,2.75,MG,1612662355,0
lagoa,39.05,-27.9833,59.99,92,100,26.64,PT,1612661921,0
tiznit,29.5833,-9.5,48.18,88,57,13.18,MA,1612662492,0
prudentopolis,-25.2131,-50.9778,60.98,78,4,3.71,BR,1612662501,0
utena,55.5,25.6,-0.63,93,12,3.56,LT,1612662501,0
chongwe,-15.3292,28.682,64.8,97,99,3.06,ZM,1612662501,0
leningradskiy,69.3833,178.4167,-10.28,74,0,5.77,RU,1612662502,0
mitsamiouli,-11.3847,43.2844,81.77,75,98,6.93,KM,1612662502,0
port keats,-14.25,129.55,87.85,66,92,14.34,AU,1612662454,0
kayattar,8.95,77.8,71.01,77,32,6.71,IN,1612662502,0
restrepo,3.822,-76.5224,78.8,69,20,9.22,CO,1612662502,0
ciudad bolivar,8.1222,-63.5497,78.87,65,100,16.28,VE,1612662276,0
xining,36.6167,101.7667,25.99,64,92,1.74,CN,1612662503,0
tuktoyaktuk,69.4541,-133.0374,-16.6,76,90,19.57,CA,1612662503,0
muros,42.7762,-9.0603,44.01,93,40,5.75,ES,1612662479,0
garowe,8.4054,48.4845,70.93,72,100,12.66,SO,1612662504,0
ahipara,-35.1667,173.1667,69.31,66,95,1.61,NZ,1612662504,0
kysyl-syr,63.8986,122.7617,-31.32,83,92,8.57,RU,1612662504,0
vieste,41.8825,16.175,48.2,93,20,8.05,IT,1612662504,0
pontianak,-0.0333,109.3333,80.6,83,75,9.22,ID,1612662462,0
osoyoos,49.0331,-119.4524,39.2,87,100,1.14,CA,1612662505,0
faanui,-16.4833,-151.75,83.08,65,0,10.07,PF,1612662505,0
sinnamary,5.3833,-52.95,77.22,87,98,13.56,GF,1612662505,0
hay river,60.8156,-115.7999,-34.6,67,9,4.61,CA,1612662506,0
ambovombe,-25.1667,46.0833,75.92,95,23,6.02,MG,1612662506,0
uyuni,-20.4597,-66.825,55.74,60,100,15.88,BO,1612662506,0
guerrero negro,27.9769,-114.0611,63.61,54,0,9.46,MX,1612662332,0
inirida,3.8653,-67.9239,75.13,96,100,2.84,CO,1612662459,0
goundam,16.4145,-3.6708,73.24,24,100,15.43,ML,1612662507,0
galveston,29.3669,-94.9669,60.01,94,1,4.61,US,1612662507,0
coquimbo,-29.9533,-71.3436,60.8,82,0,6.91,CL,1612661931,0
lazaro cardenas,17.9583,-102.2,73.9,75,0,1.59,MX,1612662507,0
ucluelet,48.9329,-125.5528,44.6,81,20,14.97,CA,1612662469,0
torbay,47.6666,-52.7314,43,93,75,24.16,CA,1612662245,0
honningsvag,70.9821,25.9704,27.81,94,100,25.75,NO,1612662343,0
yeppoon,-23.1333,150.7333,95,46,75,5.75,AU,1612662492,0
palmer,42.1584,-72.3287,25,54,20,4.43,US,1612662459,0
stornoway,58.2093,-6.3865,37.4,70,75,18.41,GB,1612662508,0
jacareacanga,-6.2222,-57.7528,74.16,95,100,1.25,BR,1612662509,0
portland,45.5234,-122.6762,46.99,87,90,16.11,US,1612661953,0
zavetnyy,44.9316,41.1373,29.62,99,100,5.64,RU,1612662509,0
siddapur,14.3333,74.8833,63.95,53,2,6.98,IN,1612662509,0
los llanos de aridane,28.6585,-17.9182,59,72,0,5.75,ES,1612662509,0
shaunavon,49.6501,-108.4181,-9.4,77,100,6.91,CA,1612662510,0
montepuez,-13.1256,38.9997,69.58,100,100,3.78,MZ,1612662510,0
kurchum,48.5722,83.6542,19.27,93,100,0.85,KZ,1612662510,0
ibi,38.6253,-0.5723,55.99,60,37,5.99,ES,1612662510,0
mitu,1.1983,-70.1733,72.77,96,100,1.32,CO,1612662511,0
okha,53.5739,142.9478,4.87,94,100,9.95,RU,1612662511,0
golden,39.7555,-105.2211,39.99,30,40,9.22,US,1612662372,0
lawrenceburg,38.0373,-84.8966,32,80,1,3.2,US,1612662511,0
acarau,-2.8856,-40.12,78.1,85,33,10.94,BR,1612662506,0
borgarnes,64.5383,-21.9206,35.6,44,0,16.11,IS,1612662512,0
poum,-20.2333,164.0167,80.24,68,0,5.64,NC,1612662512,0
alekseyevskoye,55.3071,50.1135,-4,71,75,17.9,RU,1612662512,0
waipawa,-41.4122,175.5153,75.99,63,89,8.05,NZ,1612662460,0
kayerkan,69.3497,87.7602,-28.86,75,0,4.61,RU,1612662513,0
swan hill,-35.3378,143.5544,75.36,38,40,11.39,AU,1612662513,0
antofagasta,-23.65,-70.4,66.2,77,75,8.05,CL,1612662513,0
sri aman,1.2376,111.4621,78.8,94,40,1.54,MY,1612662513,0
itarema,-2.9248,-39.9167,77.97,84,28,9.48,BR,1612662513,0
vizinga,61.0749,50.1031,-11.92,88,100,10.22,RU,1612662514,0
la rioja,42.25,-2.5,37.4,87,20,5.75,ES,1612662514,0
cross lanes,38.4204,-81.7907,37.4,60,75,4.56,US,1612662514,0
ryotsu,38.0833,138.4333,44.6,87,75,12.66,JP,1612662514,0
sola,-13.8833,167.55,82.33,70,59,3.4,VU,1612662273,0
kaitangata,-46.2817,169.8464,66,76,2,8.01,NZ,1612662515,0
alice springs,-23.7,133.8833,87.01,25,4,17.27,AU,1612662515,0
turukhansk,65.8167,87.9833,-5.21,88,98,9.44,RU,1612662515,0
rio gallegos,-51.6226,-69.2181,55.4,58,0,3.44,AR,1612662469,0
bahia honda,22.9036,-83.1592,75.49,87,5,9.31,CU,1612662516,0
havoysund,70.9963,24.6622,27.16,93,100,21.32,NO,1612662364,0
sandpoint,48.2766,-116.5533,34,93,75,1.86,US,1612662516,0
chaparral,3.7232,-75.4832,70.92,80,75,4.68,CO,1612662516,0
emporia,38.4039,-96.1817,14,79,40,9.22,US,1612662517,0
jiangyou,31.7667,104.7167,56.41,48,0,0.96,CN,1612662517,0
athens,37.9795,23.7162,57.99,87,0,2.01,GR,1612662487,0
mecca,21.4267,39.8261,64.4,59,0,5.06,SA,1612662374,0
petropavlovsk-kamchatskiy,53.0452,158.6483,28.4,59,40,13.42,RU,1612662364,0
tambacounda,13.7539,-13.7586,71.78,23,48,7.16,SN,1612662518,0
bengkulu,-3.8004,102.2655,83.57,59,100,5.48,ID,1612662258,0
gat,31.61,34.7642,55,100,0,1.7,IL,1612662381,0
puebloviejo,10.9938,-74.2844,84.2,58,20,12.66,CO,1612662518,0
omsukchan,62.5333,155.8,-2.92,88,100,9.57,RU,1612662519,0
buala,-8.145,159.5921,77.7,82,100,4.92,SB,1612662519,0
baruun-urt,46.6806,113.2792,-6.7,85,0,8.86,MN,1612662520,0
wanning,18.8003,110.3967,72.27,75,22,4.23,CN,1612662520,0
progreso,21.2833,-89.6667,78.8,69,20,4.61,MX,1612662520,0
fuerte,17.5381,120.3644,82.44,62,19,1.99,PH,1612662520,0
aksarka,66.5606,67.7975,-33.57,82,100,22.01,RU,1612662521,0
san jose,37.3394,-121.895,69.01,28,20,11.5,US,1612662336,0
pareora,-44.4871,171.2132,68,74,0,7,NZ,1612662521,0
porto seguro,-16.4497,-39.0647,78.8,83,75,6.91,BR,1612662521,0
tura,25.5198,90.2201,61.7,57,100,0.11,IN,1612662309,0
langres,47.8333,5.3333,46.99,100,90,8.05,FR,1612662522,0
steinfurt,52.1505,7.3366,28,76,100,7,DE,1612662522,0
varena,54.2167,24.5667,-5.01,84,75,1.14,LT,1612662522,0
iraquara,-12.2486,-41.6194,69.42,86,100,3,BR,1612662522,0
anshun,26.25,105.9333,51.84,85,99,6.8,CN,1612662523,0
lundazi,-12.2929,33.1782,63.7,89,100,4.68,ZM,1612662523,0
beringovskiy,63.05,179.3167,-6.45,90,83,11.74,RU,1612662349,0
tuatapere,-46.1333,167.6833,71.83,47,10,6.04,NZ,1612662523,0
hervey bay,-25.2986,152.8535,91,45,0,10.36,AU,1612662523,0
orem,40.2969,-111.6946,43,45,40,8.05,US,1612662515,0
mudanjiang,44.5833,129.6,3.69,87,0,4.61,CN,1612662524,0
iqaluit,63.7506,-68.5145,26.6,68,90,11.5,CA,1612662479,0
bubaque,11.2833,-15.8333,78.51,53,51,23.53,GW,1612662480,0
dong hoi,17.4833,106.6,71.1,85,72,1.92,VN,1612662525,0
moroni,-11.7022,43.2551,80.67,76,99,7.02,KM,1612662525,0
gwadar,25.1216,62.3254,63.68,59,0,5.06,PK,1612662525,0
byron bay,-28.65,153.6167,86,58,99,8.05,AU,1612662525,0
muborak,39.2553,65.1528,51.15,80,100,4.47,UZ,1612662526,0
beysehir,37.6773,31.7246,44.11,60,0,3.67,TR,1612662526,0
marsabit,2.3284,37.9899,68.25,63,38,7.34,KE,1612662526,0
borogontsy,62.6683,131.1683,-29.99,82,100,3.44,RU,1612662526,0
kloulklubed,7.0419,134.2556,77,94,90,14.97,PW,1612662457,0
mareeba,-17,145.4333,90,74,82,5.75,AU,1612662527,0
camabatela,-8.1881,15.375,64.78,100,100,4.25,AO,1612662527,0
santa cruz de la palma,28.6835,-17.7642,59,72,0,5.75,ES,1612662527,0
qaqortoq,60.7167,-46.0333,22.53,83,95,3.4,GL,1612662528,0
lieto,60.5103,22.4618,9,92,90,5.75,FI,1612662528,0
aksu,41.1231,80.2644,28.02,78,100,0.07,CN,1612662528,0
necochea,-38.5473,-58.7368,60.01,82,2,11.56,AR,1612662471,0
linjiang,41.8069,126.9078,19.51,80,0,2.26,CN,1612662528,0
shumikha,55.2261,63.2961,8.62,94,100,21.74,RU,1612662528,0
porto velho,-8.7619,-63.9039,77,94,40,2.3,BR,1612662303,0
saint-pierre,-21.3393,55.4781,78.8,69,40,6.91,RE,1612662529,0
laguna,38.421,-121.4238,62.6,48,1,4.61,US,1612662529,0
lawrence,38.9717,-95.2353,15.8,73,90,12.66,US,1612662421,0
rutana,-3.8667,30.1,59.5,97,99,2.64,BI,1612662529,0
camacha,33.0833,-16.3333,59,77,40,13.8,PT,1612662484,0
sao felix do xingu,-6.6447,-51.995,72.59,94,99,1.34,BR,1612662464,0
ardakan,32.31,54.0175,44.6,53,0,2.3,IR,1612662530,0
broome,42.2506,-75.833,24.8,33,1,3.44,US,1612662520,0
komsomolskiy,40.4272,71.7189,41,56,100,4.61,UZ,1612662489,0
pangody,65.85,74.4859,-16.15,87,100,16.11,RU,1612662531,0
vanavara,60.34,102.2797,11.82,95,100,10.25,RU,1612662531,0
riverton,40.5219,-111.9391,46.4,56,40,16.11,US,1612662393,0
port-gentil,-0.7193,8.7815,81.5,79,99,13.78,GA,1612662531,0
boden,65.8252,21.6886,15.8,86,90,13.8,SE,1612662531,0
simao,22.7886,100.9748,60.82,89,73,0.45,CN,1612662532,0
abu samrah,35.3029,37.1841,49.15,79,0,6.22,SY,1612662381,0
salalah,17.0151,54.0924,73.4,68,75,2.3,OM,1612662532,0
martapura,-3.4167,114.85,80.6,89,40,4.61,ID,1612662532,0
ayagoz,47.9714,80.4392,30.16,96,100,24.16,KZ,1612662275,0
jardim,-21.4803,-56.1381,66.31,77,0,2.95,BR,1612662427,0
kilimatinde,-5.85,34.95,66.61,95,100,1.7,TZ,1612662533,0
karpogory,64.0019,44.4451,-18.6,85,69,9.95,RU,1612662533,0
neiafu,-18.65,-173.9833,78.8,94,90,12.66,TO,1612662533,0
husavik,66.0449,-17.3389,33.8,69,75,5.75,IS,1612662534,0
qingyuan,23.7,113.0333,72,60,0,4.47,CN,1612662534,0
kihei,20.785,-156.4656,78.8,50,40,11.5,US,1612662534,0
diamantino,-14.4086,-56.4461,75.56,76,94,1.66,BR,1612662534,0
lisakovsk,52.5369,62.4936,5.5,89,49,25.14,KZ,1612662534,0
tabou,4.423,-7.3528,78.69,89,0,8.16,CI,1612662493,0
beloha,-25.1667,45.05,73.99,95,23,3.09,MG,1612662493,0
jiangkou,25.4872,119.1986,60.8,88,90,4.47,CN,1612662535,0
morant bay,17.8815,-76.4093,80.6,74,20,23.02,JM,1612662535,0
mashhad,36.297,59.6062,39.2,87,0,4.61,IR,1612662535,0
noumea,-22.2763,166.4572,87.8,62,40,10.36,NC,1612662323,0
balaipungut,1.05,101.2833,78.8,78,20,9.22,ID,1612662245,0
turochak,52.2576,87.1224,17.08,92,0,4.07,RU,1612662536,0
asosa,10.0667,34.5333,56.23,33,0,6.6,ET,1612662536,0
beyneu,45.3167,55.2,32.79,85,100,9.91,KZ,1612662536,0
shingu,33.7333,135.9833,57.85,44,0,6.29,JP,1612662537,0
brattvag,62.6002,6.4434,24.8,68,0,14.97,NO,1612662537,0
wiarton,44.7407,-81.1332,19.4,68,90,14.97,CA,1612662537,0
sun city west,33.662,-112.3413,68,19,1,8.05,US,1612662537,0
opuwo,-18.0607,13.84,70,46,93,3.49,NA,1612662537,0
sept-iles,50.2001,-66.3821,26.6,74,99,11.5,CA,1612662538,0
laerdalsoyri,61.098,7.4816,6.01,86,0,1.01,NO,1612662538,0
bogorodskoye,56.55,37.8833,-2.2,92,100,11.81,RU,1612662538,0
magnitka,55.3475,59.6961,-1.68,88,100,21.97,RU,1612662538,0
malinao,7.5917,124.6889,77.05,69,99,4.34,PH,1612662538,0
longview,32.5007,-94.7405,46.4,71,90,17.27,US,1612662538,0
homer,59.6425,-151.5483,33.8,60,1,9.22,US,1612662282,0
belmonte,-15.8631,-38.8828,78.8,83,75,6.91,BR,1612662539,0
mehamn,71.0357,27.8492,25.68,94,100,22.28,NO,1612662539,0
cayenne,4.9333,-52.3333,77,100,90,8.05,GF,1612662539,0
tuzla,44.5428,18.6694,41,93,0,2.3,BA,1612662540,0
ilhabela,-23.7781,-45.3581,71.42,78,5,2.21,BR,1612662493,0
hirado,33.3597,129.5531,60.01,87,75,1.14,JP,1612662540,0
yuzhno-sukhokumsk,44.6581,45.6436,36.34,96,100,5.59,RU,1612662540,0
ridgecrest,35.6225,-117.6709,68,11,1,4.61,US,1612662540,0
tooele,40.5308,-112.2983,42.8,42,1,13.8,US,1612662536,0
dafeng,23.4517,108.5881,72.12,60,3,6.58,CN,1612662541,0
mahibadhoo,3.7833,72.9667,81.3,74,61,12.44,MV,1612662541,0
nieuwpoort,51.1244,2.7735,32,100,90,16.11,BE,1612662541,0
san miguelito,9.0333,-79.5,80.6,83,40,6.91,PA,1612662542,0
saint john,45.2727,-66.0677,35.6,74,75,6.91,CA,1612662480,0
ixtapa,20.7,-105.2,72,78,40,5.75,MX,1612662542,0
tarakan,3.3,117.6333,82.4,83,75,3.44,ID,1612662542,0
nador,35.174,-2.9287,55.4,71,0,5.75,MA,1612662542,0
lorengau,-2.0226,147.2712,86.38,66,100,5.55,PG,1612662543,0
okaihau,-35.3167,173.7833,73,62,84,14,NZ,1612662543,0
ekhabi,53.5102,142.9671,2.82,94,100,8.63,RU,1612662543,0
riyadh,24.6877,46.7219,55.4,71,0,8.05,SA,1612662382,0
wawa,9.9022,4.4192,76.6,23,98,3.91,NG,1612662543,0
pangnirtung,66.1451,-65.7125,23.5,80,76,3.53,CA,1612662254,0
wheeling,42.1392,-87.929,9,78,90,12.66,US,1612662264,0
krasnyy yar,46.5331,48.3456,24.8,93,90,2.24,RU,1612662544,0
haines junction,60.7522,-137.5108,-14.8,70,52,0.31,CA,1612662544,0
manokwari,-0.8667,134.0833,78.15,86,100,2.98,ID,1612662545,0
singaraja,-8.112,115.0882,83.1,73,29,6.46,ID,1612662545,0
kalmunai,7.4167,81.8167,77.36,88,96,7.72,LK,1612662545,0
batagay-alyta,67.8006,130.4114,-23.49,84,100,1.92,RU,1612662545,0
port hardy,50.6996,-127.4199,42.8,75,75,8.05,CA,1612662545,0
mtwango,-9.0167,34.8,59.77,98,100,2.1,TZ,1612662546,0
masuguru,-11.3667,38.4167,73.31,97,100,3.4,TZ,1612662546,0
fare,-16.7,-151.0167,82.51,68,2,10.8,PF,1612662546,0
yenagoa,4.9247,6.2642,78.3,91,0,3.8,NG,1612662546,0
fereydunshahr,32.941,50.121,29.64,98,100,1.45,IR,1612662546,0
kisesa,-3.0833,34.15,66.74,84,100,5.32,TZ,1612662547,0
hamilton,39.1834,-84.5333,30.2,59,1,6.91,US,1612662357,0
ulladulla,-35.35,150.4667,77,50,75,1.14,AU,1612662547,0
srednekolymsk,67.45,153.6833,-13.18,84,0,1.61,RU,1612662548,0
kudahuvadhoo,2.6708,72.8944,80.8,78,12,14.14,MV,1612662548,0
sindor,62.8629,51.8905,-18.06,86,100,11.74,RU,1612662548,0
umm kaddadah,13.6017,26.6876,56.21,38,0,13.13,SD,1612662538,0
auki,-8.7676,160.7034,77.16,88,100,8.63,SB,1612662307,0
vrangel,42.7297,133.0839,16.56,80,0,12.57,RU,1612662549,0
marzuq,14.4,46.4667,55.44,74,0,1.5,YE,1612662519,0
katherine,-14.4667,132.2667,75.2,94,90,6.91,AU,1612662549,0
neuquen,-38.9516,-68.0591,78.8,61,0,9.73,AR,1612662514,0
kitimat,54.0524,-128.6534,33.01,94,97,2.3,CA,1612662549,0
champerico,14.3,-91.9167,64,93,0,7.18,GT,1612662480,0
belaya gora,68.5333,146.4167,-29.81,82,0,1.16,RU,1612662472,0
halifax,44.6453,-63.5724,32,86,40,10.36,CA,1612662550,0
san patricio,28.017,-97.5169,64.4,55,1,8.75,US,1612662510,0
high level,58.5169,-117.136,-23.8,76,1,0.83,CA,1612662457,0
farah,32.5,62.5,44.71,49,100,1.07,AF,1612662551,0
imbituba,-28.24,-48.6703,73.4,68,0,3.44,BR,1612662551,0
arman,59.7,150.1667,13.39,86,100,17.13,RU,1612662551,0
kanniyakumari,8.0833,77.5667,75.13,68,12,19.3,IN,1612662552,0
ganta,7.3022,-8.5308,71.96,96,96,3.11,LR,1612662552,0
port hedland,-20.3167,118.5667,86,58,40,11.5,AU,1612662549,0
penzance,50.1186,-5.5371,39,93,75,11.5,GB,1612662552,0
tuy hoa,13.0833,109.3,74.25,83,91,7.74,VN,1612662553,0
saint-augustin,51.226,-58.6502,31.96,98,100,21.61,CA,1612662449,0
ugoofaaru,5.6667,73,81.37,72,16,10.74,MV,1612662553,0
ninghai,29.2892,121.4247,63,86,88,2.01,CN,1612662553,0
sangar,63.9242,127.4739,-32.78,79,15,9.08,RU,1612662554,0
usinsk,65.9939,57.5281,-33.3,81,96,14.58,RU,1612662554,0
aswan,24.0934,32.907,55.02,63,0,4.76,EG,1612662516,0
meulaboh,4.1363,96.1285,79.41,83,80,4.5,ID,1612662471,0
xiaoweizhai,26.1903,107.5125,58.78,71,78,1.95,CN,1612662554,0
tocopilla,-22.092,-70.1979,68.13,68,10,3.98,CL,1612662555,0
porto novo,6.4965,2.6036,84.2,84,40,12.66,BJ,1612662524,0
vanimo,-2.6741,141.3028,82.62,78,99,4.07,PG,1612662305,0
lesnoy,57.6198,63.0784,4.08,94,100,15.95,RU,1612662555,0
norman,35.2226,-97.4395,32,93,90,19.57,US,1612662318,0
vigrestad,58.5667,5.7,12,78,0,9.57,NO,1612662556,0
konstantinovka,49.6167,127.9833,-12.82,88,95,7.18,RU,1612662556,0
sulina,45.1559,29.6536,37.65,90,100,13.04,RO,1612662556,0
