City_ID,City,Cloudiness,Country,Date,Humidity,Lat,Lng,Max_Temp,Wind_Speed
0,yellowknife,1,CA,1612722042,66,62.456,-114.3525,-40,5.75
1,wuxue,100,CN,1612722305,90,29.8506,115.5525,51.66,3.22
2,shamkhal,90,RU,1612722306,80,43.0596,47.3373,32,17.9
3,vaini,75,TO,1612722306,89,-21.2,-175.2,78.8,12.66
4,esperance,75,AU,1612722307,88,-33.8667,121.9,62.6,11.5
5,busselton,99,AU,1612722011,99,-33.65,115.3333,64,9.86
6,byron bay,75,AU,1612722308,78,-28.65,153.6167,75.2,10.36
7,ponta do sol,75,PT,1612722308,67,32.6667,-17.1,61,3
8,cape town,0,ZA,1612722079,60,-33.9258,18.4232,69.01,25.32
9,college,20,US,1612722309,83,64.8569,-147.8028,-14.01,2.95
10,mahebourg,75,MU,1612722091,74,-20.4081,57.7,80.6,6.91
11,faanui,2,PF,1612722309,76,-16.4833,-151.75,80.96,12.1
12,punta arenas,0,CL,1612722122,23,-53.15,-70.9167,69.8,12.66
13,luanda,75,AO,1612722245,78,-8.8368,13.2343,80.6,8.05
14,port elizabeth,75,ZA,1612722310,94,-33.918,25.5701,68,10.36
15,dembi dolo,65,ET,1612722310,29,8.5333,34.8,66.67,4.81
16,westport,90,US,1612722310,86,41.1415,-73.3579,30.99,12.66
17,rosarito,1,MX,1612722310,36,32.3333,-117.0333,64.4,5.19
18,mataura,98,NZ,1612722311,89,-46.1927,168.8643,50.13,1.7
19,waingapu,94,ID,1612722311,82,-9.6567,120.2641,78.13,5.82
20,sabha,93,LY,1612722194,15,27.0377,14.4283,74.79,15.57
21,arraial do cabo,75,BR,1612722311,83,-22.9661,-42.0278,77,5.75
22,dikson,59,RU,1612722312,84,73.5069,80.5464,-31.59,11.81
23,tuatapere,99,NZ,1612722312,71,-46.1333,167.6833,56.82,5.19
24,rikitea,96,PF,1612722313,72,-23.1203,-134.9692,77.38,12.06
25,sitka,1,US,1612722313,47,57.0531,-135.33,30.2,5.75
26,hobart,1,AU,1612722024,58,-42.8794,147.3294,53.6,5.75
27,saint george,1,US,1612722180,36,37.1041,-113.5841,50,3.44
28,conde,75,BR,1612722200,70,-7.2597,-34.9075,86,12.66
29,paracuru,50,BR,1612722314,77,-3.41,-39.0306,82,15.99
30,bambous virieux,75,MU,1612722236,74,-20.3428,57.7575,80.6,6.91
31,new castle,90,US,1612722314,58,41.0037,-80.347,26.01,10.36
32,bluff,100,NZ,1612722314,85,-46.6,168.3333,54.05,5.1
33,kasongo-lunda,59,CD,1612722315,75,-6.4667,16.8167,76.71,3.22
34,mareeba,100,AU,1612722315,100,-17,145.4333,80.01,2.46
35,bredasdorp,59,ZA,1612722315,60,-34.5322,20.0403,68,10.36
36,georgetown,20,MY,1612722315,83,5.4112,100.3354,84,3.6
37,makinsk,100,KZ,1612722316,95,52.6292,70.4169,12.02,18.03
38,iqaluit,75,CA,1612722031,68,63.7506,-68.5145,26.6,19.57
39,puerto ayora,0,EC,1612722316,70,-0.7393,-90.3518,84.2,17.27
40,tura,28,IN,1612722317,41,25.5198,90.2201,59.63,2.62
41,constitucion,67,CL,1612722317,66,-35.3333,-72.4167,67.26,8.39
42,ushuaia,40,AR,1612722305,47,-54.8,-68.3,59,12.66
43,castro,0,BR,1612722317,42,-24.7911,-50.0119,76.26,3.8
44,qaqortoq,98,GL,1612722317,30,60.7167,-46.0333,37.4,47.18
45,mao,40,ES,1612722318,93,39.8885,4.2658,48.2,5.75
46,ostrovnoy,100,RU,1612722318,88,68.0531,39.5131,6.37,1.59
47,jamestown,90,US,1612722051,73,42.097,-79.2353,19.99,17.27
48,avarua,20,CK,1612722319,83,-21.2078,-159.775,80.6,5.75
49,kondopoga,100,RU,1612722319,92,62.2057,34.2614,8.6,6.71
50,methoni,75,GR,1612722319,82,36.8197,21.7049,63,13.67
51,pevek,0,RU,1612722319,86,69.7008,170.3133,-6.29,1.86
52,nelson bay,48,AU,1612722319,83,-32.7167,152.15,69.01,11.5
53,mayumba,87,GA,1612722320,85,-3.432,10.6554,79.63,7.78
54,tasiilaq,0,GL,1612722320,58,65.6145,-37.6368,19.4,2.3
55,leningradskiy,5,RU,1612722320,79,69.3833,178.4167,-13.77,5.41
56,bartica,75,GY,1612722321,88,6.4,-58.6167,77,13.8
57,mar del plata,90,AR,1612722321,88,-38.0023,-57.5575,62.01,25.32
58,quebo,1,GW,1612722321,17,11.3333,-14.9333,93.18,5.26
59,port alfred,70,ZA,1612722322,95,-33.5906,26.891,66.99,1.01
60,itarema,3,BR,1612722322,58,-2.9248,-39.9167,87.98,15.82
61,mayo,90,US,1612722322,100,38.8876,-76.5119,36,6.91
62,cabo san lucas,40,MX,1612722246,64,22.8909,-109.9124,78.01,8.05
63,cidreira,35,BR,1612722323,62,-30.1811,-50.2056,76.41,10.42
64,kavaratti,0,IN,1612722323,67,10.5669,72.642,81.19,6.78
65,lebu,51,CL,1612722323,73,-37.6167,-73.65,64.33,8.5
66,hilo,1,US,1612722324,52,19.7297,-155.09,71.01,8.05
67,taupo,90,NZ,1612722324,87,-38.6833,176.0833,57,2.75
68,great falls,90,US,1612722324,70,47.5002,-111.3008,-7.01,3.74
69,ampanihy,37,MG,1612722324,82,-24.7,44.75,77.11,10.56
70,lagoa,100,PT,1612722325,74,39.05,-27.9833,57.85,20.69
71,kavieng,42,PG,1612722325,77,-2.5744,150.7967,82.53,8.77
72,albany,100,US,1612722179,74,42.6001,-73.9662,30,2.48
73,te anau,99,NZ,1612722325,80,-45.4167,167.7167,54.75,2.73
74,coquimbo,0,CL,1612722169,56,-29.9533,-71.3436,69.8,11.5
75,dongsheng,0,CN,1612722326,75,39.8161,109.9776,20.53,2.75
76,abbeville,98,FR,1612722326,85,50.1,1.8333,30,7.81
77,kapaa,1,US,1612722295,77,22.0752,-159.319,60.8,4.61
78,butaritari,70,KI,1612722327,80,3.0707,172.7902,80.73,18.66
79,severo-kurilsk,82,RU,1612722327,87,50.6789,156.125,16.86,13.11
80,piney green,90,US,1612722327,81,34.716,-77.3202,46,21.85
81,longyearbyen,75,SJ,1612722327,73,78.2186,15.6401,15.8,19.57
82,waitati,59,NZ,1612722328,90,-45.75,170.5667,60.01,1.01
83,karratha,54,AU,1612722328,70,-20.7377,116.8463,78.84,11.1
84,khash,0,IR,1612722328,34,28.2211,61.2158,50.88,5.97
85,luderitz,0,NA,1612722195,54,-26.6481,15.1594,74.26,30.76
86,krasnoselkup,100,RU,1612722329,95,65.7,82.4667,7.9,17.25
87,ornskoldsvik,0,SE,1612722046,86,63.2909,18.7153,21.2,8.05
88,adrar,0,MR,1612722330,24,20.5022,-10.0711,68.76,11.54
89,atuona,37,PF,1612722330,74,-9.8,-139.0333,79.25,21.03
90,tuktoyaktuk,75,CA,1612722245,75,69.4541,-133.0374,-25.6,19.57
91,victoria,0,HK,1612722330,84,22.2855,114.1577,68,10.58
92,koygorodok,100,RU,1612722331,86,60.445,50.9968,-18.89,9.86
93,berezovyy,100,RU,1612722331,85,51.6667,135.7,0.79,6.6
94,japura,100,ID,1612722331,84,-0.3167,102.35,74.8,1.36
95,qaanaaq,100,GL,1612722331,86,77.484,-69.3632,12.85,6.02
96,pemba,75,MZ,1612722332,83,-12.974,40.5178,82.4,5.75
97,ancud,0,CL,1612722332,34,-41.8697,-73.8203,80.6,6.91
98,walvis bay,24,NA,1612722332,82,-22.9575,14.5053,64.99,6.91
99,grand gaube,83,MU,1612722332,80,-20.0064,57.6608,80.01,4
100,hirado,0,JP,1612722332,93,33.3597,129.5531,48,5.01
101,mount isa,90,AU,1612722333,94,-20.7333,139.5,78.8,9.22
102,owando,66,CG,1612722333,67,-0.4819,15.8999,79.99,3.31
103,flinders,77,AU,1612722333,81,-34.5833,150.8552,66,1.01
104,saint-philippe,0,RE,1612722333,83,-21.3585,55.7679,78.8,5.75
105,nikolskoye,90,RU,1612722334,92,59.7035,30.7861,15.8,8.95
106,acapulco,40,MX,1612722098,54,16.8634,-99.8901,86,4.97
107,lompoc,1,US,1612722334,71,34.6391,-120.4579,61,3.44
108,thompson,90,CA,1612722336,68,55.7435,-97.8558,-31,18.41
109,iquique,0,CL,1612722336,44,-20.2208,-70.1431,78.8,19.57
110,bariadi,99,TZ,1612722338,73,-2.8,33.9833,69.17,1.97
111,erenhot,0,CN,1612722338,88,43.6475,111.9767,7.3,3.98
112,saskylakh,27,RU,1612722338,78,71.9167,114.0833,-38.09,11.72
113,ribeira grande,40,PT,1612722338,72,38.5167,-28.7,60.8,16.11
114,vila franca do campo,75,PT,1612722339,77,37.7167,-25.4333,61,12.66
115,goderich,99,CA,1612722339,61,43.7501,-81.7165,10.4,14.97
116,hithadhoo,14,MV,1612722339,71,-0.6,73.0833,81.97,8.9
117,hermanus,27,ZA,1612722339,74,-34.4187,19.2345,68,7
118,chuy,1,UY,1612722340,60,-33.6971,-53.4616,76.33,8.97
119,cascais,75,PT,1612722340,94,38.6979,-9.4215,55.99,13.8
120,norman wells,90,CA,1612722340,75,65.282,-126.8329,-29.2,2.3
121,skjervoy,75,NO,1612722340,69,70.0311,20.9714,28.4,11.5
122,worcester,90,US,1612722240,86,42.3334,-71.8328,27,6.91
123,new norfolk,22,AU,1612722341,64,-42.7826,147.0587,53.01,1.01
124,puerto narino,40,CO,1612722341,70,-3.7703,-70.3831,89.6,3.44
125,pakxe,89,LA,1612722341,53,15.1167,105.7833,80.01,2.37
126,sayat,0,TM,1612722342,87,38.7839,63.8803,48.2,2.3
127,okha,100,RU,1612722342,94,53.5739,142.9478,8.37,25.77
128,hasaki,40,JP,1612722342,75,35.7333,140.8333,35.6,3.44
129,corsicana,20,US,1612722269,66,32.0954,-96.4689,48.99,6.91
130,coos bay,75,US,1612722343,76,43.3665,-124.2179,48.2,5.75
131,aswan,0,EG,1612722315,36,24.0934,32.907,69.3,15.21
132,kamaishi,1,JP,1612722343,88,39.2667,141.8833,26.96,14.63
133,texarkana,90,US,1612722343,75,33.4251,-94.0477,42.8,3.44
134,nanortalik,100,GL,1612722343,87,60.1432,-45.2371,32.61,15.08
135,tokur,52,RU,1612722344,88,53.1333,132.9,-21.91,0.27
136,barrow,40,US,1612722344,76,71.2906,-156.7887,-22,10.36
137,zaragoza,75,ES,1612722332,66,41.6561,-0.8773,52,4.61
138,nogent-le-rotrou,87,FR,1612722344,75,48.3333,1,35.6,10.36
139,batsfjord,75,NO,1612722344,79,70.6345,29.7185,21.2,20.71
140,kon tum,46,VN,1612722345,92,14.35,108,62.67,2.37
141,jiangyou,37,CN,1612722345,51,31.7667,104.7167,51.58,2.71
142,sibolga,93,ID,1612722345,80,1.7427,98.7792,77.36,3.36
143,kudahuvadhoo,38,MV,1612722345,73,2.6708,72.8944,81.55,16.26
144,nichinan,20,JP,1612722346,66,31.6,131.3667,46.4,5.75
145,roma,90,US,1612722346,80,43.2128,-75.4557,28.99,9.6
146,guerrero negro,0,MX,1612722346,23,27.9769,-114.0611,71.56,5.1
147,korgen,40,NO,1612722346,85,66.0771,13.8153,12,4.61
148,sola,44,VU,1612722347,74,-13.8833,167.55,81.37,10.51
149,jacareacanga,71,BR,1612722347,87,-6.2222,-57.7528,82.65,3.31
150,ahipara,58,NZ,1612722347,89,-35.1667,173.1667,59.5,7.25
151,chernihiv,100,UA,1612722347,93,51,32,8.87,1.86
152,metro,100,ID,1612722348,93,-5.1131,105.3067,74.86,6.82
153,bingerville,20,CI,1612722348,84,5.3584,-3.8869,84.2,10.36
154,tiksi,56,RU,1612722348,84,71.6872,128.8694,-27.6,3.71
155,havre,75,FR,1612722348,86,49.5833,0.3333,33.8,20.71
156,provideniya,33,RU,1612722349,77,64.3833,-173.3,-3.91,16.49
157,urucara,97,BR,1612722349,74,-2.5364,-57.76,85.05,3.29
158,upernavik,33,GL,1612722349,81,72.7868,-56.1549,18.9,4.21
159,agirish,100,RU,1612722349,89,61.9247,63.0231,-15.54,10.63
160,pangnirtung,20,CA,1612722350,37,66.1451,-65.7125,33.8,11.5
161,narsaq,70,GL,1612722189,30,60.9167,-46.05,37.4,47.18
162,morehead,1,US,1612722235,54,37.2711,-87.1764,28,5.75
163,lorengau,63,PG,1612722350,76,-2.0226,147.2712,81.37,3.58
164,bandarbeyla,1,SO,1612722350,78,9.4942,50.8122,76.37,17.63
165,ilulissat,0,GL,1612722351,36,69.2167,-51.1,26.6,11.5
166,meulaboh,37,ID,1612722351,84,4.1363,96.1285,77.88,4.18
167,sao felix do xingu,65,BR,1612722351,60,-6.6447,-51.995,87.4,2.39
168,ust-nera,96,RU,1612722351,75,64.5667,143.2,-10.34,5.93
169,thabazimbi,95,ZA,1612722352,97,-24.5917,27.4116,68,0.43
170,aklavik,90,CA,1612722352,64,68.2191,-135.0107,-13,13.8
171,kyzyl-mazhalyk,80,RU,1612722128,89,51.1333,90.6,1.06,1.21
172,tombouctou,55,ML,1612722352,21,20,-3,70.59,12.08
173,berlevag,75,NO,1612722353,79,70.8578,29.0864,24.8,20.71
174,carnarvon,40,AU,1612722353,100,-24.8667,113.6333,78.8,13.8
175,khatanga,0,RU,1612722353,80,71.9667,102.5,-30.53,9.6
176,le port,16,RE,1612722354,65,-20.9373,55.2919,78.8,3.44
177,evensk,100,RU,1612722354,83,61.95,159.2333,18.52,34.94
178,samana,20,DO,1612722354,74,19.2056,-69.3369,86,13.8
179,nalgonda,50,IN,1612722354,37,17.05,79.2667,68.94,5.23
180,nueva loja,75,EC,1612722354,70,0.0847,-76.8828,84.2,4.61
181,olafsvik,0,IS,1612722355,85,64.8945,-23.7142,33.66,13.62
182,kabanjahe,40,ID,1612722355,100,3.1001,98.4908,78.8,4.61
183,bengkulu,100,ID,1612722355,85,-3.8004,102.2655,76.46,6.29
184,namtsy,0,RU,1612722355,60,62.7161,129.6658,-43.6,4.47
185,biltine,5,TD,1612722356,16,14.5333,20.9167,75,11.01
186,itoman,20,JP,1612722356,72,26.1247,127.6694,62.6,6.91
187,mudgee,92,AU,1612722356,77,-32.5943,149.5871,62.6,4.61
188,oranjemund,5,NA,1612722356,77,-28.55,16.4333,65.07,23.51
189,banyuwangi,100,ID,1612722356,90,-8.2325,114.3576,75.83,2.44
190,newcastle,63,AU,1612722095,83,-32.9272,151.7765,71.01,11.5
191,colinas,13,BR,1612722358,81,-6.0258,-44.2492,84.11,2.71
192,zhadovka,100,RU,1612722358,90,53.5746,46.9498,-3.51,14.12
193,mantua,90,IT,1612722358,94,45.1667,10.7833,50,4
194,bon accord,1,CA,1612722359,69,53.8335,-113.4187,-11.2,3.04
195,ostersund,90,SE,1612722359,92,63.1792,14.6357,15.8,8.05
196,svetlaya,70,RU,1612722359,85,46.5389,138.3297,0.52,11.45
197,katsuura,0,JP,1612722359,53,35.1333,140.3,44.6,8.05
198,labuhan,100,ID,1612722360,85,-6.8844,112.2051,78.87,11.01
199,grenada,75,ES,1612722360,76,37.1882,-3.6067,46.4,16.11
200,wanaka,70,NZ,1612722361,73,-44.7,169.15,52.43,5.17
201,high level,75,CA,1612722361,68,58.5169,-117.136,-29.2,3.44
202,namibe,94,AO,1612722361,75,-15.1961,12.1522,73.35,6.33
203,chara,100,RU,1612722361,74,56.9064,118.2631,-10.5,0.43
204,east london,40,ZA,1612722336,88,-33.0153,27.9116,71.6,3.44
205,inhambane,20,MZ,1612722362,74,-23.865,35.3833,82.4,4.61
206,sainte-suzanne,16,RE,1612722362,65,-20.9061,55.6089,78.8,3.44
207,antofagasta,0,CL,1612722121,56,-23.65,-70.4,71.6,12.66
208,anadyr,0,RU,1612722362,40,64.75,177.4833,10.4,11.18
209,englewood,20,US,1612722363,12,39.6478,-104.9878,53.01,21.85
210,alibag,13,IN,1612722363,36,18.6411,72.8792,78.8,8.25
211,cherskiy,41,RU,1612722363,71,68.75,161.3,-4.38,1.14
212,porto novo,20,BJ,1612722363,79,6.4965,2.6036,86,13.8
213,marawi,100,PH,1612722364,95,7.9986,124.2928,75,1.99
214,peniche,100,PT,1612722364,92,39.3558,-9.3811,55.99,24
215,kandrian,98,PG,1612722364,80,-6.2167,149.55,79.93,10.56
216,labuan,20,MY,1612722364,89,5.2767,115.2417,80.6,6.91
217,hambantota,0,LK,1612722365,94,6.1241,81.1185,77,8.05
218,conceicao da barra,94,BR,1612722365,52,-18.5933,-39.7322,88.54,3.44
219,hamilton,1,US,1612722089,38,39.1834,-84.5333,23,9.22
220,unhel,0,IN,1612722181,35,23.3333,75.5667,57.6,5.97
221,san patricio,1,US,1612722365,49,28.017,-97.5169,70,12.66
222,clyde river,90,CA,1612722366,84,70.4692,-68.5914,-4,14.97
223,sol-iletsk,100,RU,1612722366,91,51.1631,54.9918,-5.84,10.65
224,burgeo,57,CA,1612722366,87,47.6167,-57.6152,29.43,27.09
225,ternate,80,ID,1612722366,79,0.8,127.4,80.98,3.78
226,saint-pierre,0,RE,1612722367,83,-21.3393,55.4781,78.8,5.75
227,aguimes,40,ES,1612722367,68,27.9054,-15.4461,64.4,18.41
228,prince rupert,1,CA,1612722367,80,54.3161,-130.3201,33.8,5.75
229,chokurdakh,62,RU,1612722367,86,70.6333,147.9167,-23.51,7.4
230,dod ballapur,29,IN,1612722368,52,13.2919,77.5431,66.2,4.61
231,najran,36,SA,1612722368,34,17.4924,44.1277,68,2.66
232,lazaro cardenas,8,MX,1612722368,51,17.9583,-102.2,83.46,5.73
233,shingu,0,JP,1612722368,80,33.7333,135.9833,41.38,5.93
234,idritsa,52,RU,1612722369,95,56.3316,28.8988,5.9,4.94
235,phek,72,IN,1612722369,100,25.6667,94.5,39.34,1.05
236,bumba,92,CD,1612722369,35,2.1833,22.4667,76.64,1.19
237,coahuayana,1,MX,1612722369,69,18.7333,-103.6833,75.2,6.91
238,cap malheureux,78,MU,1612722369,80,-19.9842,57.6142,80.01,4
239,padang,40,ID,1612722370,78,-0.9492,100.3543,80.6,8.05
240,salym,97,RU,1612722370,90,60.0625,71.4789,1.96,10.63
241,ilhabela,81,BR,1612722370,67,-23.7781,-45.3581,76.57,5.75
242,oudtshoorn,75,ZA,1612722370,88,-33.5907,22.2014,64.4,3.44
243,mitu,64,CO,1612722203,72,1.1983,-70.1733,85.21,2.44
244,gobabis,46,NA,1612722371,49,-22.45,18.9667,77.61,15.28
245,severo-yeniseyskiy,76,RU,1612722371,97,60.3725,93.0408,25.66,12.33
246,baykit,100,RU,1612722371,96,61.67,96.37,25.45,4.85
247,aktau,40,KZ,1612722088,80,43.65,51.2,28.4,8.95
248,asau,100,RO,1612722372,74,46.4333,26.4,28.99,2.15
249,fortuna,75,US,1612722373,81,40.5982,-124.1573,48.99,6.91
250,port lincoln,31,AU,1612722373,79,-34.7333,135.8667,59.25,16.24
251,port hardy,75,CA,1612722373,93,50.6996,-127.4199,39.2,8.05
252,svarstad,13,NO,1612722373,61,59.399,9.9698,18,4
253,dingle,100,PH,1612722373,90,10.9995,122.6711,75.99,9.26
254,burns lake,99,CA,1612722374,72,54.2331,-125.7533,3.2,1.14
255,kahului,20,US,1612722271,77,20.8947,-156.47,70,5.75
256,warrington,75,GB,1612722244,69,53.3925,-2.5802,37,17.27
257,beringovskiy,100,RU,1612722374,90,63.05,179.3167,-2.2,14.76
258,sistranda,20,NO,1612722375,86,63.7256,8.834,23,9.22
259,kisangani,80,CD,1612722136,45,0.5167,25.2,74.16,0.87
260,ca mau,42,VN,1612722375,84,9.1769,105.15,74.25,4.16
261,llanes,100,ES,1612722375,91,43.4198,-4.7549,48,1.99
262,dunedin,56,NZ,1612722376,87,-45.8742,170.5036,60.01,1.19
263,bethel,90,US,1612722376,93,41.3712,-73.414,28,8.05
264,kaeo,64,NZ,1612722376,92,-35.1,173.7833,59,6.91
265,sedan,100,FR,1612722376,92,49.6667,5,33.01,4
266,brookhaven,98,US,1612722376,79,31.5791,-90.4407,50,4.38
267,port hedland,40,AU,1612722377,69,-20.3167,118.5667,78.8,9.22
268,sao filipe,79,CV,1612722377,71,14.8961,-24.4956,70.9,10.58
269,carballo,100,ES,1612722377,92,43.213,-8.691,50,7
270,maniitsoq,0,GL,1612722377,81,65.4167,-52.9,27.63,15.55
271,sorland,40,NO,1612722378,80,67.667,12.6934,35.6,19.57
272,yulara,2,AU,1612722378,33,-25.2406,130.9889,75.2,8.05
273,codrington,90,AU,1612722378,69,-38.2667,141.9667,56.3,10.67
274,mizdah,99,LY,1612722378,22,31.4451,12.9801,67.95,13.58
275,maceio,40,BR,1612722324,62,-9.6658,-35.7353,87.8,14.97
276,staunton,90,US,1612722263,87,38.1496,-79.0717,41,7.45
277,sinegorye,100,RU,1612722379,87,62.0788,150.477,-4.99,4.7
278,shimoda,2,JP,1612722379,52,34.6667,138.95,41,20.07
279,sambava,100,MG,1612722380,80,-14.2667,50.1667,78.93,0.83
280,mangrol,0,IN,1612722380,55,21.1167,70.1167,70.09,3.76
281,kloulklubed,90,PW,1612722380,94,7.0419,134.2556,77,5.75
282,kapiri mposhi,91,ZM,1612722380,93,-13.9652,28.6809,68.34,2.3
283,torbay,20,CA,1612722380,55,47.6666,-52.7314,34,27.63
284,aksu,100,CN,1612722381,81,41.1231,80.2644,31.46,1.3
285,aquiraz,40,BR,1612722381,66,-3.9014,-38.3911,86,13.8
286,kimbe,33,PG,1612722381,86,-5.5502,150.1429,76.78,3.31
287,outjo,61,NA,1612722382,30,-20.1167,16.15,82.81,7.87
288,palasa,74,IN,1612722382,83,18.7667,84.4167,67.19,3.53
289,samarai,55,PG,1612722382,78,-10.6167,150.6667,81.88,5.64
290,auki,77,SB,1612722382,85,-8.7676,160.7034,77.77,6.78
291,verkhnyaya inta,100,RU,1612722382,89,65.9811,60.3094,-15.83,7.9
292,katobu,87,ID,1612722383,93,-4.9408,122.5276,75.74,0.81
293,talnakh,0,RU,1612722383,73,69.4865,88.3972,-22.27,3.36
294,tateyama,49,JP,1612722383,49,34.9833,139.8667,44.01,1.01
295,klaksvik,20,FO,1612722383,69,62.2266,-6.589,35.6,13.8
296,salalah,40,OM,1612722384,68,17.0151,54.0924,73.4,3.44
297,loukhi,57,RU,1612722384,93,66.0764,33.0381,0.82,4.54
298,provost,10,CA,1612722384,76,52.3501,-110.2683,-20.2,2.3
299,rocha,20,UY,1612722384,55,-34.4833,-54.3333,80.15,9.48
300,lanzhou,7,CN,1612722385,40,36.0564,103.7922,30.99,1.23
301,khailar,0,IN,1612722385,41,25.35,78.5333,55.63,1.95
302,turukhansk,100,RU,1612722385,94,65.8167,87.9833,5.31,17.27
303,honiara,92,SB,1612722385,81,-9.4333,159.95,77.86,4.16
304,sao joao da barra,90,BR,1612722386,94,-21.6403,-41.0511,73.4,6.91
305,broken hill,0,AU,1612722250,48,-31.95,141.4333,62.6,8.05
306,eyl,2,SO,1612722386,79,7.9803,49.8164,76.14,18.03
307,kodiak,1,US,1612722237,68,57.79,-152.4072,26.6,4.61
308,santa cruz,75,BO,1612722197,49,-17.8,-63.1667,91.4,11.5
309,batemans bay,93,AU,1612722387,76,-35.7167,150.1833,62.01,1.99
310,zhigansk,79,RU,1612722387,80,66.7697,123.3711,-31.11,11.39
311,pandan,79,PH,1612722387,82,14.0453,124.1694,79.36,16.49
312,cuamba,86,MZ,1612722387,90,-14.8031,36.5372,72.79,2.86
313,lima,75,PE,1612722233,69,-12.0432,-77.0282,77,9.22
314,strathmore,90,CA,1612722388,76,51.0501,-113.3852,-9.99,5.75
315,safakulevo,0,RU,1612722388,89,54.9901,62.5442,-2.36,10.36
316,novikovo,12,RU,1612722388,91,51.1537,37.8879,3.07,8.52
317,kitimat,99,CA,1612722172,74,54.0524,-128.6534,27,4.29
318,tiznit,36,MA,1612722103,73,29.5833,-9.5,52.72,12.26
319,anloga,20,GH,1612722389,79,5.7947,0.8973,86,12.66
320,pacific grove,1,US,1612722389,76,36.6177,-121.9166,55.99,3.44
321,la libertad,0,EC,1612722390,74,-2.2333,-80.9,82.4,6.91
322,quatre cocos,75,MU,1612722390,74,-20.2078,57.7625,80.6,6.91
323,madimba,75,TZ,1612722390,89,-10.4,40.3333,80.6,9.22
324,plotnikovo,0,RU,1612722390,58,55.0247,85.9436,23,13.42
325,plattsburgh,90,US,1612722391,51,44.6995,-73.4529,32,11.5
326,bandrele,75,YT,1612722391,78,-12.9067,45.1914,82.4,6.91
327,nishihara,1,JP,1612722391,67,26.1842,127.7558,62.6,3.44
328,bozoum,45,CF,1612722391,19,6.3193,16.3799,78.28,4.36
329,kismayo,6,SO,1612722392,81,-0.3582,42.5454,77.54,17.47
330,mmabatho,40,ZA,1612722392,88,-25.85,25.6333,69.8,8.05
331,saldanha,0,ZA,1612722392,63,-33.0117,17.9442,66.2,20.71
332,canutama,71,BR,1612722392,55,-6.5339,-64.3831,91.74,1.16
333,mathathane,82,BW,1612722393,54,-22.2687,28.7495,78.31,11.81
334,oktyabrskoye,76,RU,1612722393,100,43.0645,44.7417,26.6,6.71
335,isangel,20,VU,1612722393,80,-19.55,169.2667,77.18,4.47
336,sonoita,0,MX,1612722394,19,31.85,-112.8333,70,1.14
337,lavrentiya,0,RU,1612722394,83,65.5833,-171,-11.09,6.31
338,hailey,1,US,1612722394,64,43.5196,-114.3153,30.99,5.75
339,luau,99,AO,1612722394,96,-10.7073,22.2247,68.99,4.34
340,umm kaddadah,14,SD,1612722395,23,13.6017,26.6876,68.5,13.18
341,udachnyy,100,RU,1612722395,84,66.4167,112.4,-24.63,6.91
342,dzaoudzi,75,YT,1612722396,78,-12.7887,45.2699,82.4,6.91
343,palu,87,ID,1612722396,83,-0.8917,119.8707,76.37,2.33
344,kinsale,90,IE,1612722396,75,51.7075,-8.5306,39,20.71
345,shenjiamen,100,CN,1612722396,80,29.9576,122.298,50.99,14.25
346,altamira,75,BR,1612722397,100,-3.2033,-52.2064,75.2,6.91
347,north bend,75,US,1612722397,76,43.4065,-124.2243,48.2,5.75
348,touros,40,BR,1612722397,58,-5.1989,-35.4608,87.8,17.27
349,nara,2,JP,1612722398,75,34.6851,135.8049,42.01,5.57
350,mweka,99,CD,1612722398,79,-4.85,21.5667,74.07,1.32
351,rumoi,38,JP,1612722398,91,43.9344,141.6428,10.99,5.28
352,kharan,0,PK,1612722398,20,28.5833,65.4167,62.15,6.82
353,rach gia,40,VN,1612722399,94,10.0167,105.0833,77,2.3
354,odweyne,2,SO,1612722399,56,9.4092,45.064,67.19,9.53
355,san cristobal,40,VE,1612722378,51,7.7669,-72.225,87.8,9.22
356,siniscola,20,IT,1612722399,93,40.5719,9.6922,51.8,3.44
357,kaniama,69,CD,1612722399,94,-7.5667,24.1833,69.3,2.91
358,rio grande,20,BR,1612722400,61,-32.035,-52.0986,80.6,11.5
359,aborlan,75,PH,1612722400,83,9.4352,118.5492,78.8,9.22
360,mananjary,95,MG,1612722400,84,-21.2167,48.3333,80.56,12.8
361,arman,100,RU,1612722400,85,59.7,150.1667,12.76,16.28
362,andros town,75,BS,1612722326,78,24.7,-77.7667,80.6,12.66
363,seoul,0,KR,1612722353,54,37.5683,126.9778,26.6,8.05
364,iskandar,20,UZ,1612722401,71,41.5539,69.7008,51.8,4.61
365,port hawkesbury,75,CA,1612722402,46,45.6169,-61.3485,30.99,6.91
366,drayton valley,0,CA,1612722402,85,53.2168,-114.9854,-15.77,2.8
367,tutoia,20,BR,1612722403,62,-2.7619,-42.2744,89.6,14.97
368,souillac,75,MU,1612722404,74,-20.5167,57.5167,80.6,6.91
369,muros,100,ES,1612722404,93,42.7762,-9.0603,55.99,5.99
370,nome,1,US,1612722405,84,64.5011,-165.4064,-5.8,4.43
371,eydhafushi,60,MV,1612722405,75,5.1033,73.0708,81.79,9.33
372,teya,94,RU,1612722405,95,60.3778,92.6267,28.72,11.32
373,jiaojiang,83,CN,1612722129,76,28.6803,121.4428,59,4.59
374,fram,20,PY,1612722406,48,-26.9833,-55.8833,89.6,9.22
375,castrillon,40,ES,1612722407,76,43.3979,-6.7922,51.8,13.8
376,kamenka,60,RU,1612722408,91,51.3223,42.7678,-4.76,10.07
377,rawson,28,AR,1612722409,49,-43.3002,-65.1023,61.23,14.05
378,vitim,100,RU,1612722409,94,59.4511,112.5578,12.87,10.54
379,ponta delgada,75,PT,1612722410,77,37.7333,-25.6667,61,12.66
380,kruisfontein,100,ZA,1612722411,94,-34.0033,24.7314,64.99,3
381,argelia,74,CO,1612722411,54,2.2556,-77.2488,79.57,1.66
382,taoudenni,0,ML,1612722412,22,22.6783,-3.9836,69.67,8.93
383,joshimath,0,IN,1612722413,32,30.5667,79.5667,48.7,8.63
384,port augusta,0,AU,1612722401,77,-32.5,137.7667,62.6,10.36
385,wasilla,0,US,1612722413,77,61.5814,-149.4394,5,1.72
386,niscemi,75,IT,1612722301,77,37.1486,14.3913,62.6,4.61
387,nadterechnoye,90,RU,1612722414,93,43.6227,45.3397,28.4,8.28
388,nizhneivkino,100,RU,1612722414,87,58.194,49.5214,-16.06,10.83
389,haverfordwest,11,GB,1612722415,73,51.8017,-4.9691,37,15.99
390,rapid valley,90,US,1612722415,66,44.0625,-103.1463,3,10.36
391,geraldton,40,AU,1612722400,78,-28.7667,114.6,69.8,10.36
392,bathsheba,75,BB,1612722415,61,13.2167,-59.5167,82.4,26.46
393,shelburne,84,CA,1612722163,71,44.0787,-80.2041,19,13.94
394,alice springs,29,AU,1612722324,35,-23.7,133.8833,77,4.61
395,matveyevka,90,RU,1612722416,78,52.15,56.1833,-0.4,15.66
396,petropavlovsk-kamchatskiy,100,RU,1612722305,86,53.0452,158.6483,21.2,4.47
397,uige,86,AO,1612722417,94,-7.6087,15.0613,69.62,2.39
398,gorom-gorom,53,BF,1612722417,13,14.4439,-0.2361,87.22,10.96
399,coihaique,0,CL,1612722418,35,-45.5752,-72.0662,73.4,6.91
400,begoro,89,GH,1612722418,46,6.3871,-0.3774,85.35,3.18
401,sidi ali,60,DZ,1612722418,83,36.0998,0.4206,52.79,25.77
402,piacabucu,92,BR,1612722418,66,-10.4056,-36.4344,84.52,14.94
403,luganville,21,VU,1612722419,72,-15.5333,167.1667,77.43,6.51
404,north platte,90,US,1612722419,78,41.1239,-100.7654,3.2,13.8
405,tselinnoye,85,RU,1612722419,96,53.0833,85.6667,23.11,6.78
406,saint-augustin,75,CA,1612722419,93,51.226,-58.6502,29.28,22.3
407,manokwari,97,ID,1612722419,80,-0.8667,134.0833,78.58,2.39
408,erzin,40,TR,1612722420,63,36.9559,36.2,60.8,12.66
409,twin falls,1,US,1612722420,48,42.3505,-114.6445,39,14.97
410,sakakah,0,SA,1612722420,62,29.9697,40.2064,55.4,6.91
411,rawdon,100,CA,1612722421,63,46.0501,-73.7159,21.99,2.3
412,raudeberg,0,NO,1612722421,60,61.9875,5.1352,25,4.36
413,sisimiut,0,GL,1612722421,81,66.9395,-53.6735,25.79,17.31
414,labis,56,MY,1612722421,92,2.385,103.021,73.06,2.26
415,praia da vitoria,40,PT,1612722422,72,38.7333,-27.0667,59,16.26
416,xingyi,100,CN,1612722422,97,24.1877,102.817,48.56,3.83
417,lindome,0,SE,1612722422,86,57.5667,12.0833,21.99,9.22
418,surab,0,PK,1612722422,35,28.4914,66.2585,46.26,3.69
419,avera,90,US,1612722423,76,33.194,-82.5271,48.2,6.91
420,cayenne,75,GF,1612722423,78,4.9333,-52.3333,82.4,14.97
421,galle,41,LK,1612722423,84,6.0367,80.217,78.48,4.27
422,yengema,8,SL,1612722424,17,8.7167,-11.1667,95.36,3.69
423,balikpapan,99,ID,1612722424,89,-1.2675,116.8289,76.6,2.66
424,tongren,100,CN,1612722425,81,27.7172,109.1853,49.05,8.39
425,bubaque,1,GW,1612722425,61,11.2833,-15.8333,78.78,16.62
426,mwene-ditu,92,CD,1612722425,92,-7,23.45,68.63,3.65
427,hami,36,CN,1612722425,80,42.8,93.45,30.97,4.41
428,gat,0,IL,1612722425,100,31.61,34.7642,60.01,4.92
429,neiafu,90,TO,1612722403,94,-18.65,-173.9833,77,13.8
430,kandi,77,BJ,1612722426,15,11.1342,2.9386,87.96,4.68
431,rabat,40,MA,1612722307,67,33.9911,-6.8401,57.2,6.91
432,prainha,74,BR,1612722426,43,-1.8,-53.48,92.1,4.05
433,rongcheng,100,CN,1612722426,84,30.634,117.8517,49.32,7.36
434,mumford,96,GH,1612722427,83,5.2618,-0.759,81.72,15.84
435,tautira,75,PF,1612722427,69,-17.7333,-149.15,80.6,4.61
436,kushmurun,46,KZ,1612722427,92,52.4503,64.6311,7.23,14.18
437,ranong,10,TH,1612722428,87,9.9658,98.6348,74.89,4.18
438,sirsi,0,IN,1612722428,37,14.6167,74.85,69.04,6.13
439,the valley,20,AI,1612722363,69,18.217,-63.0578,84.2,18.41
440,atar,0,MR,1612722428,21,20.5169,-13.0499,73.15,15.12
441,tecoanapa,27,MX,1612722428,58,16.5167,-98.75,83.79,6.24
442,forestville,90,US,1612722429,100,38.8451,-76.875,37.99,8.05
443,general roca,90,AR,1612722429,46,-39.0333,-67.5833,69.8,10.36
444,smithers,75,CA,1612722253,92,54.7804,-127.1743,8.6,1.32
445,puerto del rosario,20,ES,1612722323,55,28.5004,-13.8627,66.2,12.66
446,luba,20,GQ,1612722430,74,3.4568,8.5547,84.2,5.75
447,nurota,98,UZ,1612722430,87,40.5614,65.6886,48.2,6.91
448,emporia,90,US,1612722298,85,38.4039,-96.1817,12.2,11.5
449,tigil,13,RU,1612722430,93,57.8,158.6667,27.79,17.92
450,kotelnich,100,RU,1612722430,86,58.3089,48.348,-14.66,10.11
451,mbini,40,GQ,1612722431,79,1.574,9.6134,84.2,6.91
452,magadan,100,RU,1612722431,86,59.5667,150.8,14.36,19.62
453,shahdadkot,0,PK,1612722431,29,27.8477,67.9055,61.43,2.33
454,husavik,90,IS,1612722408,80,66.0449,-17.3389,32,3.44
455,saint-francois,90,FR,1612722431,81,46.4154,3.9054,41,6.91
456,kayerkan,8,RU,1612722432,78,69.3497,87.7602,-22.97,6.35
457,port shepstone,52,ZA,1612722432,87,-30.7414,30.455,74.19,8.48
458,hearst,100,CA,1612722432,64,49.6835,-83.6665,-11.2,9.22
459,praia,75,CV,1612722433,60,14.9215,-23.5087,71.6,24.16
460,cleethorpes,90,GB,1612722433,69,53.5605,-0.0323,36,24.16
461,nouadhibou,0,MR,1612722433,68,20.931,-17.0347,68,17.27
462,santa fe,0,AR,1612722311,30,-31.6333,-60.7,93,5.37
463,union,90,US,1612722434,93,40.6334,-74.2663,33.01,4.61
464,kalmar,20,SE,1612722434,68,56.6616,16.3616,27,6.91
465,inongo,98,CD,1612722434,69,-1.95,18.2667,79.83,0.85
466,ayia marina,43,GR,1612722434,80,37.75,23.5333,62.01,10
467,vangaindrano,100,MG,1612722435,89,-23.35,47.6,78.89,11.36
468,anchorage,90,US,1612722207,78,61.2181,-149.9003,8.6,4.61
469,roald,0,NO,1612722435,46,62.5833,6.1333,24.8,10.36
470,bogorodskoye,99,RU,1612722435,91,56.55,37.8833,-0.81,7.14
471,seara,100,PT,1612722436,9,41.1818,-7.8003,46,4.16
472,liverpool,75,GB,1612722436,69,53.4106,-2.9779,35.6,17.27
473,nhulunbuy,40,AU,1612722436,83,-12.2333,136.7667,80.6,9.22
474,nyurba,100,RU,1612722436,88,63.2842,118.3319,-5.39,7.96
475,bissau,0,GW,1612722436,23,11.8636,-15.5977,89.6,10.36
476,tabou,70,CI,1612722437,82,4.423,-7.3528,81.52,8.41
477,yuzhnyy,75,RU,1612722437,86,53.2542,83.6936,21.2,11.18
478,san miguel,0,SV,1612722437,38,13.4833,-88.1833,95,2.3
479,russell,40,US,1612722437,54,32.3502,-85.1999,51.8,10.36
480,ginir,86,ET,1612722438,45,7.1333,40.7,66,0.76
481,oktyabrskiy,100,RU,1612722155,88,54.4815,53.471,-4.4,12.33
482,abatskoye,100,RU,1612722438,91,56.2875,70.4555,2.89,16.62
483,kaitangata,61,NZ,1612722439,94,-46.2817,169.8464,61,2.44
484,sinnamary,82,GF,1612722439,86,5.3833,-52.95,77.95,14.94
485,lata,100,PT,1612722439,93,40.1629,-8.3327,54,1.99
486,faya,0,SA,1612722439,62,18.3851,42.4509,57.2,6.33
487,bambanglipuro,100,ID,1612722440,89,-7.95,110.2833,77.09,4.59
488,tatvan,28,TR,1612722440,85,38.5067,42.2817,31.3,1.99
489,buala,92,SB,1612722440,82,-8.145,159.5921,79.61,6.55
490,ayan,100,RU,1612722440,79,56.45,138.1667,-5.21,22.03
491,san andres,20,CO,1612722440,62,12.5847,-81.7006,86,8.05
492,atikokan,43,CA,1612722363,85,48.7555,-91.6216,-18.36,9.69
493,airai,100,TL,1612722441,100,-8.9266,125.4092,60.64,2.86
494,grafton,90,US,1612722441,86,42.207,-71.6856,30,6.91
495,myaundzha,100,RU,1612722441,87,63.0494,147.1858,1.04,7.74
496,mae sai,90,TH,1612722442,100,20.4335,99.8762,66.99,10.36
497,boa vista,75,BR,1612722442,51,2.8197,-60.6733,87.8,12.66
498,poum,96,NC,1612722442,71,-20.2333,164.0167,79.25,1.86
499,tyukalinsk,100,RU,1612722442,92,55.8732,72.1967,4.87,17.69
500,ugoofaaru,51,MV,1612722443,75,5.6667,73,81.63,10.87
501,pisco,40,PE,1612722255,83,-13.7,-76.2167,78.01,9.22
502,bonavista,55,CA,1612722443,47,48.6499,-53.1147,34,20.71
503,hirara,96,JP,1612722443,72,24.8,125.2833,68.59,11.03
504,sainte-marie,20,RE,1612722444,65,-20.8968,55.5496,78.8,3.44
505,syracuse,75,IT,1612722444,94,37.0881,15.2792,60.01,14.97
506,mersing,87,MY,1612722444,89,2.4312,103.8405,78.8,10.36
507,arco,90,IT,1612722163,100,45.9177,10.8867,37.99,23.02
508,broome,90,US,1612722422,86,42.2506,-75.833,33.01,6.91
509,svolvaer,40,NO,1612722445,69,68.2342,14.5683,30.2,17.27
510,barbosa ferraz,40,BR,1612722445,54,-24.03,-52.0117,82.4,6.91
511,havre-saint-pierre,1,CA,1612722446,68,50.2334,-63.5986,24.8,16.11
512,iralaya,75,HN,1612722446,65,15,-83.2333,86,10.36
513,concepcion del uruguay,0,AR,1612722446,35,-32.4825,-58.2372,93,1.01
514,aguas vermelhas,100,BR,1612722446,61,-15.7472,-41.46,78.62,7.38
515,hobyo,11,SO,1612722447,77,5.3505,48.5268,78.28,19.01
516,muroto,0,JP,1612722447,60,33.2833,134.15,54.12,14.12
517,gizo,49,SB,1612722447,79,-8.103,156.8419,82.31,10.63
518,sesimbra,75,PT,1612722448,94,38.4445,-9.1015,55.99,11.5
519,kurumkan,100,RU,1612722448,87,54.3,110.3,-0.42,1.21
520,chagoda,68,RU,1612722448,91,59.164,35.3285,-4,4.5
521,abu kamal,0,SY,1612722449,60,34.4506,40.9171,59.36,7.65
522,turka,100,UA,1612722449,86,49.1541,23.0297,32,3.98
523,shagamu,86,NG,1612722449,60,6.8432,3.6478,86,7.78
524,alcaniz,67,ES,1612722210,54,41.05,-0.1333,51.01,4
525,san rafael del sur,20,NI,1612722450,43,11.8485,-86.4384,91.4,16.11
